year_month,id,location,location_type,latitude,longitude,status,zone,all_groups,guid,in_service_utc,as_of
2019-06,410168-SCHEDR4402,SCHENLEY DR,On street,40.440574194092235,-79.94810253381729,Removed,410 - Oakland 4,410 - Oakland 4|Z - Inactive/Removed Terminals,EE7C4FB7-038A-461A-A667-002870BA4155,2012-08-27T11:24:43,2019-06-30T02:31:01
2019-06,421009-CEDAR-0302,CEDAR AVE,On street,40.45135553504061,-80.00114961226848,Active,421 - NorthSide,NORTHSIDE|421 - NorthSide,5BAC585B-FE5C-4090-ABF8-005D6C670EF1,2013-08-08T11:34:15,2019-06-30T02:31:01
2019-06,409242-NDTHRG0106,N DITHRIDGE ST,On street,40.44878409633437,-79.95179325342178,Active,409 - Oakland 3,409 - Oakland 3|OAKLAND3,F4BDCD95-6853-413F-A1C6-009AF3F9D725,2012-09-04T16:08:27,2019-06-30T02:31:01
2019-06,PBP412,Virtual Terminal for ParkMobile,Virtual Zone,,,Active,412 - East Liberty,EASTLIB,8FAADCCE-A7BD-4988-85FC-00DCAB30782C,2015-10-23T16:56:58,2019-06-30T02:31:01
2019-06,426002-CENTRE1802,CENTRE AVE,On street,40.44262125209757,-79.9820963143975,Active,426 - Hill District,Hill District|426 - Hill District|HILL-DIST,DFCD9083-EE1C-477D-8F82-00F688A1F78C,2017-07-17T11:24:27,2019-06-30T02:31:01
2019-06,407118-MEYRAN0203,MEYRAN AVE,On street,40.43985562683172,-79.95736688375473,Active,407 - Oakland 1,OAKLAND1|407 - Oakland 1,E28258E3-6228-4B8C-AD29-012D6AE53A30,2012-08-13T12:25:00,2019-06-30T02:31:01
2019-06,402403-BLVDAL0004,BLVD OF ALLIES,On street,40.439706604818944,-80.00547230243683,Active,402 - Downtown 2,402 - Downtown 2|DOWNTOWN2,27D7B43B-71C7-48F2-A124-0193C266B650,2012-11-05T15:37:19,2019-06-30T02:31:01
2019-06,415018-ECARSN0701,E CARSON ST,On street,40.4286943930917,-79.99169111251831,Active,415 - SS & SSW,SOUTHSIDE|415 - SS & SSW,EB023D05-211C-4C76-9F03-01A548EBC0D0,2012-09-12T19:55:17,2019-06-30T02:31:01
2019-06,421054-WESTRN0802,WESTERN AVE,On street,40.45226210252639,-80.01455102331351,Active,421 - NorthSide,NORTHSIDE|421 - NorthSide,B99AF93A-D46B-4F2B-8AB4-01B2097712B6,2013-08-06T11:30:23,2019-06-30T02:31:01
2019-06,415039-ECARSN2004,E CARSON ST,On street,40.42844734281789,-79.97670829296112,Active,415 - SS & SSW,SOUTHSIDE|415 - SS & SSW,CA645F17-913D-415A-AAEF-01E7F0E2C444,2012-09-12T19:58:58,2019-06-30T02:31:01
2019-06,404470-PENAVE2001,PENN AVE,On street,40.45127814997119,-79.98376135910797,Active,404 - Strip Disctrict,404 - Strip Disctrict|STRIPDIST,3ABFD579-706D-4D11-B6C8-01F31BD2F37B,2012-11-19T20:34:02,2019-06-30T02:31:01
2019-06,401350-SMTHFD0601,SMITHFIELD,On street,40.441868412339666,-79.99742299318313,Active,401 - Downtown 1,401 - Downtown 1|DOWNTOWN1,B57137CB-963A-4EB7-8656-026075EFBFC4,2012-11-05T14:47:30,2019-06-30T02:31:01
2019-06,411603-ELSWTH5805,ELLSWORTH AVE,On street,40.4570551018058,-79.92957170552256,Active,411 - Shadyside,411 - Shadyside|SHADYSIDE2,70FC40AE-509B-4653-8FE7-028E6F9A4AB1,2013-07-18T00:34:14,2019-06-30T02:31:01
2019-06,402505-ROSSST0101,ROSS ST,On street,40.436317373526116,-79.99735216319465,Active,402 - Downtown 2,402 - Downtown 2|DOWNTOWN2,D3412B7E-A7E9-4518-9879-029AC906BB7D,2012-11-14T13:43:52,2019-06-30T02:31:01
2019-06,404455-PENAVE1201,PENN AVE,On street,40.44598386828942,-79.99207504795459,Active,404 - Strip Disctrict,404 - Strip Disctrict|STRIPDIST,DBBC5556-C49C-4E04-A21D-02B9AD87AE55,2012-11-19T20:25:35,2019-06-30T02:31:01
2019-06,PBP415,Virtual Terminal for ParkMobile,Virtual Zone,,,Active,415 - SS & SSW,SOUTHSIDE,7E96DFFE-D0BD-4CDB-A7F7-02FA96BCE932,2015-10-23T17:32:42,2019-06-30T02:31:01
2019-06,421020-EOHIO-0502,EAST OHIO ST,On street,40.45329146567518,-80.00117363558195,Active,421 - NorthSide,NORTHSIDE|421 - NorthSide,8768B927-F851-4D60-986A-0318083D26F4,2013-08-06T11:28:57,2019-06-30T02:31:01
2019-06,413028-MURRAY1903,MURRAY AVE,On street,40.43550188715578,-79.92294463558198,Active,413 - Squirrel Hill,SQ.HILL1|413 - Squirrel Hill,CDCB4729-6AFC-4FE5-9EF7-0340173CD67B,2013-07-09T12:13:15,2019-06-30T02:31:01
2019-06,415102-S27TH-0004,S 27TH,On street,40.428433050625514,-79.96567368507385,Active,415 - SS & SSW,SOUTHSIDE|415 - SS & SSW,1618B60E-B634-433D-A13C-035AA6DB6985,2012-09-10T13:55:12,2019-06-30T02:31:01
2019-06,402407-BLVDAL0203,BLVD OF ALLIES,On street,40.43869610437429,-80.00245481729507,Active,402 - Downtown 2,402 - Downtown 2|DOWNTOWN2,83B38C76-4E11-4B2B-85FE-035FDD621374,2012-11-05T15:39:41,2019-06-30T02:31:01
2019-06,421069-CHLDWY0002,CHILDRENS WAY,On street,40.45206299999999,-80.00663644912276,Active,421 - NorthSide,NORTHSIDE|421 - NorthSide,DA42A056-CA2F-4B88-BF23-038164AC410B,2013-08-08T21:04:27,2019-06-30T02:31:01
2019-06,407133-LTHROP0203,LOTHROP ST,On street,40.44243385949397,-79.9618273973465,Active,407 - Oakland 1,OAKLAND1|407 - Oakland 1,6CB7B2A8-5E8F-4E44-B905-03B23C8032C8,2012-08-13T12:26:37,2019-06-30T02:31:01
2019-06,405009-BUTLER4302,BUTLER ST,On street,40.47089709972424,-79.96003845767211,Active,405 - Lawrenceville,405 - Lawrenceville|LAWRENCEV,AF7300D8-73FA-4935-AC1F-03F4D662C317,2013-09-03T13:38:59,2019-06-30T02:31:01
2019-06,412593-TRADE-5901,TRADE ST,On street,40.46007864575436,-79.92668056564139,Active,412 - East Liberty,EASTLIB|412 - East Liberty,13F23EDB-53AC-4BBE-8A4A-041DF2AC625E,2013-08-14T11:23:05,2019-06-30T02:31:01
2019-06,420013-GRANDV0202,GRANDVIEW AVE,On street,40.43274180486333,-80.00873762367519,Active,420 - Mt. Washington,MT.WASH|420 - Mt. Washington,C437F04F-436C-42B1-B57A-0488DB3BDC90,2016-07-23T11:43:16,2019-06-30T02:31:01
2019-06,408232-FORBES3907,FORBES AVE,On street,40.44309013966765,-79.95416432619095,Active,408 - Oakland 2,OAKLAND2|408 - Oakland 2,92D8C45B-CFF4-42D0-B88D-04C4875A1AE3,2012-08-29T16:51:21,2019-06-30T02:31:01
2019-06,421041-RIDGE-0704,RIDGE AVE,On street,40.45062955674701,-80.01293997668648,Active,421 - NorthSide,NORTHSIDE|421 - NorthSide,7672B8A4-B7DA-4CD7-AFAD-051E3C1256B0,2013-08-07T11:20:49,2019-06-30T02:31:01
2019-06,419005-BROOKL0804,BROOKLINE BLVD,On street,40.39323618127498,-80.01943459737049,Active,419 - Brookline,BROOKLINE|419 - Brookline,60413EFA-9EAC-4A17-AD14-0559A07DD72C,2013-05-20T19:15:37,2019-06-30T02:31:01
2019-06,405024-BUTLER3602,BUTLER ST,On street,40.46591287978226,-79.96484937519654,Inactive,405 - Lawrenceville,405 - Lawrenceville|Z - Inactive/Removed Terminals,114B99DB-8D1E-4ED2-91BB-058ADBF35468,2015-04-01T12:02:25,2019-06-30T02:31:01
2019-06,404438-SMALLM2102,SMALLMAN ST,On street,40.45273565924721,-79.98330099999998,Active,404 - Strip Disctrict,404 - Strip Disctrict|STRIPDIST,B40951A5-A2D2-4F8E-B524-05C6DFD9FEF9,2012-11-19T20:17:03,2019-06-30T02:31:01
2019-06,404516-SMALLM1606,SMALLMAN ST,On street,40.45017415603631,-79.98677582820699,Inactive,404 - Strip Disctrict,404 - Strip Disctrict|Z - Inactive/Removed Terminals,56EA832D-A4FC-419A-930C-05E60070C9AC,2012-11-20T14:27:09,2019-06-30T02:31:01
2019-06,351002-BSANKY0002,BROWNSVILLE SANKEY LOT,Lot,40.38486831112038,-79.97776916294242,Active,351 - Brownsville & Sandkey Lot,BROW-SAN-L|351 - Brownsville & Sandkey Lot,9BEB0554-A11C-48EB-8FF3-0607E277C951,2013-10-10T12:03:31,2019-06-30T02:31:01
2019-06,413042-MURRAY2303,MURRAY AVE,On street,40.43070321840473,-79.92327602331352,Active,413 - Squirrel Hill,SQ.HILL1|413 - Squirrel Hill,C015CD20-6897-4DF5-A3E4-060FF5938C86,2013-07-10T11:42:49,2019-06-30T02:31:01
2019-06,411483-IVYST-0802,IVY ST,On street,40.45147102052121,-79.93214470552254,Active,411 - Shadyside,SHADYSIDE1|411 - Shadyside,2495E332-029B-4CF5-9C95-0660DA29FD0C,2012-12-05T12:26:53,2019-06-30T02:31:01
2019-06,PBP403-3,Virtual Terminal for ParkMobile,Virtual Zone,,,Active,403 - Uptown,UPTOWN2,94E07DE6-236F-4739-A640-06993F097AA4,2015-10-23T17:45:45,2019-06-30T02:31:01
2019-06,401375-FORBES0102,FORBES AVE,On street,40.4410539151185,-80.00384420156479,Inactive,401 - Downtown 1,Z - Inactive/Removed Terminals,5EBB9701-9824-47BC-BDAF-0713325EEA18,2012-11-05T14:49:44,2019-06-30T02:31:01
2019-06,403325-CENTRE3104,CENTRE AVE,On street,40.448404446192356,-79.96007055044174,Inactive,403 - Uptown,403 - Uptown|Z - Inactive/Removed Terminals,91B4446C-F679-4F8A-B85D-07AB27FC871F,2012-09-05T13:11:37,2019-06-30T02:31:01
2019-06,421050-WOHIO-0705,WEST OHIO ST,On street,40.45206276189161,-80.01253229447746,Active,421 - NorthSide,NORTHSIDE|421 - NorthSide,1147334A-B786-4564-A73C-07F871438EFA,2013-08-07T11:21:38,2019-06-30T02:31:01
2019-06,419015-BROOKL0708,BROOKLINE BLVD,On street,40.393814614828976,-80.02033865274393,Active,419 - Brookline,BROOKLINE|419 - Brookline,2888FC4B-00A3-4590-B7B1-080DE1667F20,2013-10-22T11:43:42,2019-06-30T02:31:01
2019-06,411612-SHIGHL0203,S HIGHLAND AVE,On street,40.4581625569088,-79.92506683680534,Active,411 - Shadyside,411 - Shadyside|SHADYSIDE2,2FC6A91C-E3A0-4522-839A-0818D23C6F3A,2013-07-25T19:15:02,2019-06-30T02:31:01
2019-06,421042-RIDGE-0702,RIDGE AVE,On street,40.45074100000001,-80.01233795337293,Active,421 - NorthSide,NORTHSIDE|421 - NorthSide,C469830E-72E3-4266-85AC-0841CED6411D,2013-08-07T11:20:58,2019-06-30T02:31:01
2019-06,427005-BVILLE0502,BROWNSVILLE RD,On street,40.411741781006164,-79.98980686068535,Active,427 - Knoxville,KNOXVILLE|427 - Knoxville,8CDA4D5C-0DC3-46B3-9BC5-08629771B003,2018-02-26T14:04:20,2019-06-30T02:31:01
2019-06,415014-JANEST2004,JANE ST,On street,40.42665058625364,-79.97685581445694,Active,415 - SS & SSW,SOUTHSIDE|415 - SS & SSW,61616054-163F-4D3C-9EE8-087DE35D059C,2012-09-12T19:54:38,2019-06-30T02:31:01
2019-06,415056-S12TH-0003,S 12TH,On street,40.428561680247505,-79.98647689819336,Active,415 - SS & SSW,SOUTHSIDE|415 - SS & SSW,DD6A7C31-8AE4-4CF9-A962-08D230965D77,2012-09-12T20:01:22,2019-06-30T02:31:01
2019-06,412605-BROADS6101,BROAD ST,On street,40.46188700520014,-79.92258603690061,Active,412 - East Liberty,EASTLIB|412 - East Liberty,E868A836-D8C6-4D4C-AB54-08E2E07E2127,2014-10-03T16:19:52,2019-06-30T02:31:01
2019-06,407110-FORBES3405,FORBES AVE,On street,40.43946163640892,-79.9599726498127,Active,407 - Oakland 1,OAKLAND1|407 - Oakland 1,D59895A5-6601-4D5D-941B-0909D4B536C9,2012-08-13T12:24:06,2019-06-30T02:31:01
2019-06,416003-BVILLE2504,BROWNSVILLE RD,On street,40.38588746314686,-79.97903162240164,Active,416 - Carrick,416 - Carrick|CARRICK,F0607D5D-930E-4B89-9435-096BF57842D7,2016-07-30T12:37:02,2019-06-30T02:31:01
2019-06,413049-MURRAY4204,MURRAY AVE,On street,40.42229900000001,-79.92893945767213,Active,413 - Squirrel Hill,SQ.HILL2|413 - Squirrel Hill,BF9CDDF7-C469-4181-9A2F-0996C01A31A5,2013-07-15T16:26:09,2019-06-30T02:31:01
2019-06,413013-SHADY-1702,SHADY AVE,On street,40.43774897927045,-79.91942286269,Active,413 - Squirrel Hill,SQ.HILL1|413 - Squirrel Hill,59ADE52B-6A7B-4702-82A8-09B0D1E003B3,2013-07-10T11:42:49,2019-06-30T02:31:01
2019-06,421072-BRIGHN0803,BRIGHTON RD,On street,40.450968102720935,-80.013434317791,Active,421 - NorthSide,NORTHSIDE|421 - NorthSide,D0C58917-7596-4288-A743-09CB3225A366,2013-08-07T11:22:24,2019-06-30T02:31:01
2019-06,404466-PENAVE1703,PENN AVE,On street,40.45030864504387,-79.985207069767,Active,404 - Strip Disctrict,404 - Strip Disctrict|STRIPDIST,19EFC2A7-9329-4A7B-9A43-0A065D809F50,2012-11-19T20:32:20,2019-06-30T02:31:01
2019-06,409258-SCRAIG0401,S CRAIG ST,On street,40.44490584878311,-79.94867116212845,Active,409 - Oakland 3,S. Craig|409 - Oakland 3|OAKLAND3,BFAE8875-5BD9-4590-A194-0A0F2DEEE948,2012-09-04T16:16:51,2019-06-30T02:31:01
2019-06,406607-LIBRTY5002,LIBERTY AVE,On street,40.459109306232016,-79.94437949570084,Active,406 - Bloomfield (On-street),BLOOMFIELD|406 - Bloomfield (On-street),EE630A17-04F4-4054-80A0-0A5A921756B5,2012-12-05T13:07:36,2019-06-30T02:31:01
2019-06,401379-FORBES0303,FORBES AVE,On street,40.43968414941857,-79.99947488307953,Active,401 - Downtown 1,401 - Downtown 1|DOWNTOWN1,A3D9011C-4AA3-4C0E-A660-0A747F868730,2016-10-20T12:51:09,2019-06-30T02:31:01
2019-06,420003-VGINIA0104,VIRGINIA AVE,On street,40.42959771258985,-80.00773007982843,Active,420 - Mt. Washington,MT.WASH|420 - Mt. Washington,A7DDBAD6-3CB5-494D-B8E7-0AA6042849E9,2014-12-05T14:11:09,2019-06-30T02:31:01
2019-06,403372-5THAVE1402,5TH AVE,On street,40.438533330538434,-79.98606102331354,Active,403 - Uptown,403 - Uptown|UPTOWN2,BF9B34CE-8F6F-4627-9983-0AB232403424,2013-07-30T11:44:01,2019-06-30T02:31:01
2019-06,PBP338,Virtual Terminal for ParkMobile,Virtual Lot,,,Active,338 - 42nd & Butler Lot,42-BUTLE-L,C77DF70A-1513-46AF-B144-0AC14700BB0D,2015-10-23T16:37:25,2019-06-30T02:31:01
2019-06,405001-BUTLER4001,BUTLER ST,On street,40.46940032854956,-79.96156270552251,Active,405 - Lawrenceville,405 - Lawrenceville|LAWRENCEV,192DC88E-01BB-489A-9297-0ADADCC8A3F9,2013-09-03T13:38:59,2019-06-30T02:31:01
2019-06,421029-ALLGHY0001,ALLEGHENY SQ,On street,40.45270606150744,-80.00479758643274,Active,421 - NorthSide,NORTHSIDE|421 - NorthSide,EDF7CF9F-ADE9-4812-9E7E-0AF34F76A3D1,2013-08-08T11:35:24,2019-06-30T02:31:01
2019-06,408228-FORBES3801,FORBES AVE,On street,40.44176022154784,-79.95679557323456,Active,408 - Oakland 2,OAKLAND2|408 - Oakland 2,E59B87B5-0031-4986-A720-0B9BE154CD1C,2012-08-29T16:52:09,2019-06-30T02:31:01
2019-06,414003-MELLON0003,MELLON PARK,On street,40.45155877293245,-79.91963465889546,Active,414 - Mellon Park,MELONPARK|414 - Mellon Park,1F610809-7F5B-4899-91C8-0BA8416AC10B,2013-07-17T11:20:34,2019-06-30T02:31:01
2019-06,413006-FORBES5806,FORBES AVE,On street,40.437968958547565,-79.92107268982454,Active,413 - Squirrel Hill,SQ.HILL1|413 - Squirrel Hill,8CAB6BD5-186E-4B50-A9E3-0BC366A778DD,2013-07-09T12:13:15,2019-06-30T02:31:01
2019-06,422026-GENROB0102,W GENERAL ROBINSON ST,On street,40.44725582122618,-80.0096120238959,Active,422 - Northshore,422 - Northshore|NORTHSHORE,2E647F80-BFCE-478B-AAD0-0C33AC6F330E,2016-03-23T13:54:08,2019-06-30T02:31:01
2019-06,411576-IVYST-0702,IVY ST,On street,40.45188210257504,-79.9323503411045,Inactive,411 - Shadyside,411 - Shadyside|Z - Inactive/Removed Terminals,07092B1C-54A2-4E76-9438-0C4708CC38A0,2012-12-05T12:27:46,2019-06-30T02:31:01
2019-06,PBP401,Virtual Terminal for ParkMobile,Virtual Zone,,,Active,401 - Downtown 1,DOWNTOWN1,B91E17CB-70A9-429D-9075-0C5B2CE7ED43,2015-10-23T16:54:24,2019-06-30T02:31:01
2019-06,423008-ALEXST0602,ALEXANDER DR,On street,,,Inactive,423 - West End,423 - West End|Z - Inactive/Removed Terminals,ABD92CB4-7D84-4060-8F4E-0C5D84F3C692,2016-07-25T11:28:39,2019-06-30T02:31:01
2019-06,421053-WOHIO-0701,WEST OHIO ST,On street,40.45164885371551,-80.01155695337297,Active,421 - NorthSide,NORTHSIDE|421 - NorthSide,FF7EFBCC-BEB2-49CF-BA2F-0C90552CBD2E,2013-08-07T11:22:00,2019-06-30T02:31:01
2019-06,344339-18CARSN0001,18TH & CARSON LOT,Lot,40.428647433192154,-79.98025953769684,Active,344 - 18th & Carson Lot,344 - 18th & Carson Lot|18-CARSO-L|Southside Lots,DD0AAB94-081A-4C71-B191-0CB088ED3E66,2012-10-25T12:51:48,2019-06-30T02:31:01
2019-06,411482-BELLFN0802,BELLEFONTE ST,On street,40.450982897357086,-79.93379711656763,Active,411 - Shadyside,SHADYSIDE1|411 - Shadyside,A5B9AA7E-91C5-499B-AD2A-0D03A54C382E,2012-12-05T12:26:18,2019-06-30T02:31:01
2019-06,406606-LIBRTY4904,LIBERTY AVE,On street,40.45953244923865,-79.94524913988113,Active,406 - Bloomfield (On-street),BLOOMFIELD|406 - Bloomfield (On-street),60BA7816-5A43-45A4-BF25-0D40073B86F2,2012-12-05T13:07:12,2019-06-30T02:31:01
2019-06,401526-WOODST0404,WOOD ST,On street,40.440479404648016,-80.00060615690421,Active,401 - Downtown 1,401 - Downtown 1|DOWNTOWN1,7F34B2F5-78E4-453E-9AB6-0D40DCC7654E,2015-09-28T15:22:32,2019-06-30T02:31:01
2019-06,407134-LTHROP0101,LOTHROP ST,On street,40.441627534489925,-79.96023416519165,Active,407 - Oakland 1,OAKLAND1|407 - Oakland 1,9C276ABA-C70D-4A90-98A4-0D9B7763FAAA,2012-08-13T12:26:43,2019-06-30T02:31:01
2019-06,402405-BLVDAL0201,BLVD OF ALLIES,On street,40.439086016446495,-80.00344723463058,Active,402 - Downtown 2,402 - Downtown 2|DOWNTOWN2,ACE103F3-E147-4E92-BE41-0DFA1CF3FD9A,2012-11-05T15:38:34,2019-06-30T02:31:01
2019-06,413054-DARLNG5802,DARLINGTON ST,On street,40.437054217722974,-79.92258031779101,Active,413 - Squirrel Hill,SQ.HILL1|413 - Squirrel Hill,8036C1A9-F049-4629-9CE0-0E37AF15C1DC,2013-07-08T12:18:54,2019-06-30T02:31:01
2019-06,402382-1STAVE0401,1ST AVE,On street,40.437001695805954,-79.99893575906753,Active,402 - Downtown 2,402 - Downtown 2|DOWNTOWN2,500B782D-2EF2-46E9-8C66-0E44A0267149,2012-11-05T14:51:10,2019-06-30T02:31:01
2019-06,410145-FREWST4805,FREW ST,On street,40.441450958229794,-79.9465012550354,Active,410 - Oakland 4,OAKLAND4|410 - Oakland 4,BE8A828B-9641-4D63-AD17-0E6068C4AB57,2012-08-27T11:17:19,2019-06-30T02:31:01
2019-06,408214-OHARA-4103,OHARA ST,On street,40.44549168263022,-79.9566051363945,Inactive,408 - Oakland 2,408 - Oakland 2|Z - Inactive/Removed Terminals,D0C5BC87-5A1B-4731-B267-0E64D3117F62,2012-08-29T19:26:55,2019-06-30T02:31:01
2019-06,404433-SMALLM1604,SMALLMAN ST,On street,40.450042372251396,-79.98698823065376,Inactive,404 - Strip Disctrict,404 - Strip Disctrict|Z - Inactive/Removed Terminals,C0180FB6-F170-4A7A-8BD7-0EAFF1D11628,2012-11-19T20:14:11,2019-06-30T02:31:01
2019-06,401520-CHATHM0002,CHATHAM SQ,On street,40.44080446224253,-79.99383303719276,Active,401 - Downtown 1,401 - Downtown 1|DOWNTOWN1,511C2B06-A921-4F0D-BD75-0EB8BC236E73,2013-08-08T14:38:00,2019-06-30T02:31:01
2019-06,407111-FORBES3501,FORBES AVE,On street,40.4403384150565,-79.95875760912895,Active,407 - Oakland 1,OAKLAND1|407 - Oakland 1,367BBA11-9DC8-4074-993B-0F2F72B23ADD,2012-08-13T12:24:14,2019-06-30T02:31:01
2019-06,403356-5THAVE1304,5TH AVE,On street,40.438595104580834,-79.98718600000001,Active,403 - Uptown,403 - Uptown|UPTOWN2,B73ED968-79E8-43BA-8036-0F61633633C2,2013-07-30T12:07:32,2019-06-30T02:31:01
2019-06,415346-BEDSQR0003,BEDFORD SQ,On street,40.429170115442844,-79.98644202947617,Active,415 - SS & SSW,SOUTHSIDE|415 - SS & SSW,113FBF20-674F-4134-A572-0FC93AFF82F6,2012-10-25T15:46:35,2019-06-30T02:31:01
2019-06,361001-BRKLOT0001,BROOKLINE LOT,Lot,40.39267412224306,-80.01872520899269,Active,361 - Brookline Lot,361 - Brookline Lot|BROOKLIN-L,4EA9998A-67C5-427B-A6ED-0FDB2D000947,2014-09-09T16:34:07,2019-06-30T02:31:01
2019-06,410162-SCHEDR4102,SCHENLEY DR,On street,40.44199701626193,-79.95237797498703,Inactive,410 - Oakland 4,410 - Oakland 4|Z - Inactive/Removed Terminals,47EE0F5E-F30B-422E-877A-0FF2334089C3,2012-08-28T14:26:45,2019-06-30T02:31:01
2019-06,412578-PENNAV5904,PENN AVE,On street,40.461505772077864,-79.9252226588955,Active,412 - East Liberty,EASTLIB|412 - East Liberty,FD221623-DAA0-4FD0-B504-100377523F3A,2013-08-09T11:25:49,2019-06-30T02:31:01
2019-06,412627-BAUMBV5702,BAUM BLVD,On street,40.4585466504803,-79.93289580612327,Active,412 - East Liberty,EASTLIB|412 - East Liberty,0818E60D-C47E-48E4-B53C-1011FF793EEE,2017-02-02T16:06:22,2019-06-30T02:31:01
2019-06,403383-FULLER0202,FULLERTON ST,On street,40.44165284716794,-79.98898100846418,Active,403 - Uptown,UPTOWN1|403 - Uptown,C0EE06CB-47B9-409D-8E69-10550E8D0A6B,2016-10-11T14:38:58,2019-06-30T02:31:01
2019-06,402398-4THAVE0401,4TH AVE,On street,40.438673290019054,-79.99926868220905,Active,402 - Downtown 2,402 - Downtown 2|DOWNTOWN2,13F1DDE3-6B42-475E-9C39-10B006DD4218,2012-11-05T15:02:29,2019-06-30T02:31:01
2019-06,403342-STEVSN0004,STEVENSON ST,On street,40.43837288703248,-79.98655930307581,Active,403 - Uptown,403 - Uptown|UPTOWN2,314D771E-8D78-4644-BABD-10CF1E04F888,2013-07-29T01:09:08,2019-06-30T02:31:01
2019-06,408195-5THAVE3901,FIFTH AVE,On street,40.44289723682892,-79.9570906162262,Active,408 - Oakland 2,OAKLAND2|408 - Oakland 2,CC217332-569A-4024-A59A-10D9DE2FE6F7,2012-08-29T17:31:41,2019-06-30T02:31:01
2019-06,413050-MURRAY4201,MURRAY AVE,On street,40.42285978075423,-79.92868774355122,Active,413 - Squirrel Hill,SQ.HILL2|413 - Squirrel Hill,06A87AAB-2668-47D5-93E0-110051399718,2013-07-15T16:26:20,2019-06-30T02:31:01
2019-06,403371-5THAVE1401,5TH AVE,On street,40.43864144351046,-79.98566863558199,Active,403 - Uptown,403 - Uptown|UPTOWN2,6C6BD6D1-7D6E-4BB8-B0C1-114353A80488,2013-07-30T11:43:24,2019-06-30T02:31:01
2019-06,401355-OLIVER0303,OLIVER AVE,On street,40.44117231382381,-79.99897062778473,Inactive,401 - Downtown 1,Z - Inactive/Removed Terminals,8CA4E6FA-0503-4E57-94CE-1194BFEEFA7D,2012-11-05T14:47:57,2019-06-30T02:31:01
2019-06,403337-SHIGNS0001,SHINGISS ST,On street,40.4382853305544,-79.993850364418,Active,403 - Uptown,403 - Uptown|UPTOWN2,AB17C99E-E00D-4E14-B905-11E28BBBFEB9,2013-07-29T01:09:07,2019-06-30T02:31:01
2019-06,415037-ECARSN2002,E CARSON ST,On street,40.428488177636474,-79.97733861207962,Active,415 - SS & SSW,SOUTHSIDE|415 - SS & SSW,AECB13E2-BDD4-47F6-8CBF-11EDDF454B08,2012-09-12T19:58:31,2019-06-30T02:31:01
2019-06,412606-SHIGHL0102,S HIGHLAND AVE,On street,40.46069178481595,-79.92485135581967,Active,412 - East Liberty,EASTLIB|412 - East Liberty,ECA8C901-07AC-4315-8802-1228879DF480,2013-08-09T11:26:34,2019-06-30T02:31:01
2019-06,412573-BROADS0001,BROAD ST,On street,40.462055613154185,-79.92344634110452,Active,412 - East Liberty,EASTLIB|412 - East Liberty,8425CE86-A57C-41EF-8FFA-127391A3964E,2012-11-30T12:06:13,2019-06-30T02:31:01
2019-06,405022-BUTLER3506,BUTLER ST,On street,40.46517009592073,-79.96532144398316,Active,405 - Lawrenceville,405 - Lawrenceville|LAWRENCEV,67A67779-3478-4DEE-AC13-12776B54CFDD,2015-04-01T12:02:25,2019-06-30T02:31:01
2019-06,410159-SCHEDR3902,SCHENLEY DR,On street,40.44092530939199,-79.95398998260498,Active,410 - Oakland 4,OAKLAND4|410 - Oakland 4,299ACAB3-055B-4A91-9454-1379DD002967,2012-08-28T14:26:11,2019-06-30T02:31:01
2019-06,410180-SCHEDR4708,SCHENLEY DR,On street,40.43948409188368,-79.94356691837311,Active,410 - Oakland 4,OAKLAND4|410 - Oakland 4,23F68C68-7F81-4BDF-802E-139161D7510F,2012-08-24T14:39:17,2019-06-30T02:31:01
2019-06,401358-7THST-0101,7TH ST,On street,40.4442669370593,-80.00063091516495,Active,401 - Downtown 1,401 - Downtown 1|DOWNTOWN1,DE870CE4-ECCB-4B4D-90A9-13D6FF66794B,2012-11-05T14:48:13,2019-06-30T02:31:01
2019-06,415094-SIDNEY2801,SIDNEY ST,On street,40.426376985020326,-79.96387124061584,Active,415 - SS & SSW,SOUTHSIDE|415 - SS & SSW,009719D8-1A94-4909-A8B8-1479C8ABD618,2012-09-10T13:52:57,2019-06-30T02:31:01
2019-06,406650-PENNAV5103,PENN AVE.,On street,40.46491091894339,-79.94187632206376,Active,406 - Bloomfield (On-street),BLOOMFIELD|406 - Bloomfield (On-street),98C185B6-F9B8-49B3-B173-14FA281C14C2,2016-03-23T17:54:15,2019-06-30T02:31:01
2019-06,413040-MURRAY2203,MURRAY AVE,On street,40.431995556346905,-79.9231042478504,Active,413 - Squirrel Hill,SQ.HILL1|413 - Squirrel Hill,F8975305-2D87-418E-BF4D-150841142289,2013-07-10T11:42:49,2019-06-30T02:31:01
2019-06,402420-SMTHFD0101,SMITHFIELD,On street,40.437432447092434,-80.00031977891922,Active,402 - Downtown 2,402 - Downtown 2|DOWNTOWN2,65BA070E-7CC6-484B-ABC8-1512B81A25D5,2012-11-05T16:03:26,2019-06-30T02:31:01
2019-06,402418-MARKET0002,MARKET ST,On street,40.438316397251036,-80.00419825315475,Active,402 - Downtown 2,402 - Downtown 2|DOWNTOWN2,2D4B7BE5-5CDD-4D24-AD9D-151583FD2162,2012-11-05T16:02:16,2019-06-30T02:31:01
2019-06,415104-S28TH-0002,S 28TH,On street,40.42692010279829,-79.9651050567627,Active,415 - SS & SSW,SOUTHSIDE|415 - SS & SSW,AFE77197-F158-4CEE-961D-154CFC0EB2AF,2012-09-10T13:55:43,2019-06-30T02:31:01
2019-06,422031-GENROB0101,W GENERAL ROBINSON ST,On street,40.44751858752072,-80.00935077667236,Active,422 - Northshore,422 - Northshore|NORTHSHORE,F6F7E577-5044-4655-BE73-1571EFC14659,2018-04-18T11:25:06,2019-06-30T02:31:01
2019-06,409247-SDTHRG0404,S DITHRIDGE ST,On street,40.4442363181341,-79.9503019452095,Active,409 - Oakland 3,409 - Oakland 3|OAKLAND3,935C986D-3CE2-4548-985B-158022AC5200,2012-09-04T16:15:19,2019-06-30T02:31:01
2019-06,407115-CLTART0202,COLTART AVE,On street,40.43887779143275,-79.96013358235359,Active,407 - Oakland 1,OAKLAND1|407 - Oakland 1,7A298D77-0EA0-4C05-8BCA-15BA231C5B6F,2012-08-13T12:24:40,2019-06-30T02:31:01
2019-06,416008-BVILLE2603,BROWNSVILLE RD,On street,40.384887391051706,-79.97800299524442,Active,416 - Carrick,416 - Carrick|CARRICK,E75CF4AD-A9E2-498B-BE6C-160387A34F6B,2016-07-30T12:38:01,2019-06-30T02:31:01
2019-06,412582-PENNAV6101,PENN AVE,On street,40.460994088490274,-79.92328663558197,Active,412 - East Liberty,EASTLIB|412 - East Liberty,D4E68A97-5AA3-4086-A84D-1606EAB05970,2013-08-09T11:26:17,2019-06-30T02:31:01
2019-06,411477-WALNUT5404,WALNUT ST,On street,40.45092212317758,-79.93434029447746,Active,411 - Shadyside,SHADYSIDE1|411 - Shadyside,BD13B14A-F4B2-4500-9911-160C12964979,2012-12-05T12:23:49,2019-06-30T02:31:01
2019-06,405007-BUTLER4201,BUTLER ST,On street,40.47050849126262,-79.96054664254188,Active,405 - Lawrenceville,405 - Lawrenceville|LAWRENCEV,C2F1D000-8826-4B9A-B58D-161379C6BDAE,2013-09-03T13:38:59,2019-06-30T02:31:01
2019-06,421018-EOHIO-0504,EAST OHIO ST,On street,40.45330445443647,-80.00116827116392,Active,421 - NorthSide,NORTHSIDE|421 - NorthSide,0E154BDA-FFA3-466C-8C3A-1689BEC7DD74,2013-08-06T11:28:41,2019-06-30T02:31:01
2019-06,413046-MURRAY2702,MURRAY AVE,On street,40.42897143718193,-79.92413170552254,Active,413 - Squirrel Hill,SQ.HILL2|413 - Squirrel Hill,1D260B6A-EFD1-451D-84D4-169B34DE68C1,2013-07-12T01:23:41,2019-06-30T02:31:01
2019-06,403378-5THAVE1502,5TH AVE,On street,40.43847450676607,-79.98458151520936,Active,403 - Uptown,403 - Uptown|UPTOWN2,527A273D-4BCA-4780-AF77-16B03783F2C0,2015-06-06T10:30:38,2019-06-30T02:31:01
2019-06,404443-17THST0101,17TH ST,On street,40.44960643275141,-79.98585500000001,Active,404 - Strip Disctrict,404 - Strip Disctrict|STRIPDIST,2D54768C-D53D-48B2-808E-16B7FFD7326B,2012-11-19T20:19:14,2019-06-30T02:31:01
2019-06,421059-WESTRN0805,WESTERN AVE,On street,40.45209977288599,-80.01623202331353,Active,421 - NorthSide,NORTHSIDE|421 - NorthSide,2AD40A26-8CB4-4539-823D-16CE6AB194AA,2013-08-06T11:31:00,2019-06-30T02:31:01
2019-06,417001-WARRING0701,WARRINGTON AVE,On street,40.42182017321764,-79.99513069230841,Active,417 - Allentown,ALLENTOWN|417 - Allentown,C4466183-3055-4CC9-B755-16DCA823EB5F,2016-07-30T12:38:32,2019-06-30T02:31:01
2019-06,422022-NSHORE0203,NORTHSHORE AVE,On street,40.44639976347265,-80.00927168220903,Active,422 - Northshore,422 - Northshore|NORTHSHORE,3C7FD8BA-C4FC-49E1-9757-17113AD56442,2013-07-16T11:13:43,2019-06-30T02:31:01
2019-06,355560-ASTERW0001,ASTEROID WARRINGTON LOT,Lot,40.421746663239325,-79.99334165889547,Active,355 - Asteroid Warrington Lot,355 - Asteroid Warrington Lot|ASTE-WAR-L,02C16CB3-2DDB-48C5-99D5-18438BAA50A2,2012-11-29T13:13:15,2019-06-30T02:31:01
2019-06,403317-RBSTEX0405,ROBINSON ST EXT,On street,40.445901967406264,-79.9655020236969,Active,403 - Uptown,HILL DISTRICT 2|403 - HILL DISTRICT 2|403 - Uptown|HILL-DIST-2,278D5827-60C1-41DB-BAF9-1856A60AAF46,2012-09-05T13:09:27,2019-06-30T02:31:01
2019-06,421061-WESTRN0905,WESTERN AVE,On street,40.45170588645985,-80.01834468220903,Active,421 - NorthSide,NORTHSIDE|421 - NorthSide,593CFCC7-7913-49C7-A384-185A60018AB4,2013-08-06T11:31:16,2019-06-30T02:31:01
2019-06,419007-BROOKL0601,BROOKLINE BLVD,On street,40.39534646489992,-80.0220880091224,Active,419 - Brookline,BROOKLINE|419 - Brookline,A1E012FD-E2FD-40A2-9A58-18686C68D4BE,2013-08-16T11:08:03,2019-06-30T02:31:01
2019-06,415087-ECARSN2801,E CARSON ST,On street,40.42606663003528,-79.965341091156,Active,415 - SS & SSW,SOUTHSIDE|415 - SS & SSW,3EF1C31E-A7FC-4DC8-813F-18A72D5C4868,2012-09-10T13:51:08,2019-06-30T02:31:01
2019-06,PBP329,Virtual Terminal for ParkMobile,Virtual Lot,,,Inactive,329 - Centre Craig,Z - Inactive/Removed Terminals,44B68FC8-034B-40BD-A0F1-18C52795C07D,2015-10-23T16:52:22,2019-06-30T02:31:01
2019-06,410150-TECHST5004,TECH ST,On street,40.441515260621,-79.94174301624298,Active,410 - Oakland 4,OAKLAND4|410 - Oakland 4,1444E9AC-1C0B-477F-BBB6-19701A799368,2012-08-28T14:24:34,2019-06-30T02:31:01
2019-06,427003-BVILLE0402,BROWNSVILLE RD,On street,40.413028385335366,-79.98909875750542,Active,427 - Knoxville,KNOXVILLE|427 - Knoxville,AE33D882-5BA7-4873-AAF3-19779B0569DB,2018-02-26T14:45:58,2019-06-30T02:31:01
2019-06,421044-RIDGE-0803,RIDGE AVE,On street,40.450380783708624,-80.01496268220899,Active,421 - NorthSide,NORTHSIDE|421 - NorthSide,5D069F4C-4C12-4596-83A7-1980AB3AA099,2013-08-06T11:29:54,2019-06-30T02:31:01
2019-06,401349-SMTHFD0503,SMITHFIELD,On street,40.441000839769146,-79.9979916214943,Inactive,401 - Downtown 1,Z - Inactive/Removed Terminals,8D63BDBD-DFBC-4E2B-9827-19A596C91EBC,2012-11-05T14:47:23,2019-06-30T02:31:01
2019-06,415040-ECARSN2101,E CARSON ST,On street,40.428510636776146,-79.97505605220794,Active,415 - SS & SSW,SOUTHSIDE|415 - SS & SSW,EC9254D0-F6DB-4A67-91D6-1A5C2E01D92D,2012-09-12T19:59:10,2019-06-30T02:31:01
2019-06,409301-FILMOR4401,FILMORE ST,On street,40.445183457096306,-79.95072305202484,Active,409 - Oakland 3,409 - Oakland 3|OAKLAND3,9C8C9FE0-E684-441F-83DE-1A5E63B361C3,2012-09-04T16:10:30,2019-06-30T02:31:01
2019-06,404471-PENAVE2002,PENN AVE,On street,40.45117201537671,-79.9837130793457,Active,404 - Strip Disctrict,404 - Strip Disctrict|STRIPDIST,3B6303C4-85B7-4664-96F2-1B0054FC47C2,2012-11-19T20:34:29,2019-06-30T02:31:01
2019-06,407128-TERACE3401,TERRACE ST,On street,40.441540777425864,-79.96335759758949,Active,407 - Oakland 1,OAKLAND1|407 - Oakland 1,5626D2B6-2FB7-4593-AC65-1B37775E9DB7,2012-08-13T12:26:10,2019-06-30T02:31:01
2019-06,PBP357,Virtual Terminal for ParkMobile,Virtual Lot,,,Active,357 - Shiloh Street Lot,SHILOH-L,36CC210D-DEEF-4414-A7A2-1B71EAA67616,2015-10-23T17:30:54,2019-06-30T02:31:01
2019-06,406634-PENNAV4701,PENN AVE,On street,40.46571364393861,-79.94741734110448,Active,406 - Bloomfield (On-street),BLOOMFIELD|406 - Bloomfield (On-street),A36DEDBF-9159-43C9-8E13-1BD90DE1B838,2013-07-28T13:59:55,2019-06-30T02:31:01
2019-06,412598-CENTRE5901,CENTRE AVE,On street,40.459483517712876,-79.92616013128281,Active,412 - East Liberty,EASTLIB|412 - East Liberty,89A814C4-3DA1-4608-88E8-1BEEC08A8281,2013-08-14T11:23:39,2019-06-30T02:31:01
2019-06,304525-TAMELO0002,TAMELLO BEATTY LOT,Lot,40.46076269293209,-79.92752235581969,Active,304 - Tamello Beatty Lot,304 - Tamello Beatty Lot|TAME-BEA-L,35E6CE32-993A-4522-921B-1BEF804F8F12,2012-11-29T12:37:44,2019-06-30T02:31:01
2019-06,409240-NDTHRG0103,N DITHRIDGE ST,On street,40.44845343342797,-79.95143115520477,Inactive,409 - Oakland 3,409 - Oakland 3|Z - Inactive/Removed Terminals,120B9A6A-483D-4AAE-BB94-1C5A89AF40F9,2012-09-04T16:08:10,2019-06-30T02:31:01
2019-06,408233-SBQUET0101,S BOUQUET ST,On street,40.44247162384565,-79.95726495981216,Active,408 - Oakland 2,OAKLAND2|408 - Oakland 2,2FB23403-A2BB-43AE-914D-1C66B1F9D931,2012-08-29T16:51:09,2019-06-30T02:31:01
2019-06,412611-BAUMBV5801,BAUM BLVD,On street,40.460540658241364,-79.92679697668649,Inactive,412 - East Liberty,EASTLIB|412 - East Liberty|Z - Inactive/Removed Terminals,2FF60091-ABB4-4F44-A0C9-1CB30FBB902B,2013-08-15T12:00:59,2019-06-30T02:31:01
2019-06,411609-MARYLD0502,MARYLAND AVE,On street,40.45635898817086,-79.93098895337294,Active,411 - Shadyside,411 - Shadyside|SHADYSIDE2,43C8BE1E-7F53-4D67-9211-1CD99444A2ED,2013-07-18T00:34:14,2019-06-30T02:31:01
2019-06,419009-BROOKL0904,BROOKLINE BLVD,On street,40.392374742983605,-80.01836531181277,Active,419 - Brookline,BROOKLINE|419 - Brookline,B0C82413-7ED5-41B9-A9A3-1CF35F0773A9,2013-08-16T11:09:29,2019-06-30T02:31:01
2019-06,PBP403-2,Virtual Terminal for ParkMobile,Virtual Zone,,,Active,403 - Uptown,UPTOWN1,59A300D4-1275-49CB-9F48-1D00FFC60514,2015-10-23T17:44:23,2019-06-30T02:31:01
2019-06,402397-4THAVE0303,4TH AVE,On street,40.43902837278516,-80.00021429447747,Active,402 - Downtown 2,402 - Downtown 2|DOWNTOWN2,447D176E-EEC4-475D-851C-1DA88A85E0BA,2012-11-05T15:01:27,2019-06-30T02:31:01
2019-06,335553-FCEDAR0001,FRIENDSHIP CEDARVILLE LOT,Lot,40.46212481086781,-79.94840572883606,Active,335 - Friendship Cedarville Lot,335 - Friendship Cedarville Lot|FRIE-CED-L,1EF23D2B-FBA4-4BF3-93A9-1DADDAFF4AAD,2012-11-29T13:10:00,2019-06-30T02:31:01
2019-06,421055-WESTRN0801,WESTERN AVE,On street,40.4524142271415,-80.01449463558197,Active,421 - NorthSide,NORTHSIDE|421 - NorthSide,6A900EA0-630B-4DEA-BAB1-1DF64D425972,2013-08-06T11:30:15,2019-06-30T02:31:01
2019-06,415068-S19TH-0003,S 19TH,On street,40.428504511556994,-79.97924029827118,Active,415 - SS & SSW,SOUTHSIDE|415 - SS & SSW,BAD1D63E-DDD0-4094-BC45-1E021B89947B,2012-09-12T20:04:33,2019-06-30T02:31:01
2019-06,421002-CEDAR-0804,CEDAR AVE,On street,40.45472155683489,-80.00224172883605,Active,421 - NorthSide,NORTHSIDE|421 - NorthSide,C27813AE-02EC-4221-A8AA-1E1120C0028B,2013-08-08T11:33:23,2019-06-30T02:31:01
2019-06,328545-IVYBEL0001,IVY BELLEFONTE LOT,Lot,40.45156393844067,-79.93402075214959,Active,328 - Ivy Bellefonte Lot,328 - Ivy Bellefonte Lot|IVY-BELL-L,A42A7931-E6C9-4050-8D91-1E3E266CCDB9,2012-11-29T13:06:07,2019-06-30T02:31:01
2019-06,PBP402,Virtual Terminal for ParkMobile,Virtual Zone,,,Active,402 - Downtown 2,DOWNTOWN2,2EBFF337-57B7-429E-9141-1E42A781CA83,2015-10-23T16:55:01,2019-06-30T02:31:01
2019-06,403365-FORBES1003,FORBES AVE,On street,40.437937184437146,-79.98978368220901,Active,403 - Uptown,403 - Uptown|UPTOWN2,4ED6B3EE-A16C-49AE-A023-1E5825B6F102,2013-07-29T01:09:08,2019-06-30T02:31:01
2019-06,415036-ECARSN2001,E CARSON ST,On street,40.428645391456655,-79.9772447347641,Active,415 - SS & SSW,SOUTHSIDE|415 - SS & SSW,9F26784A-C0EE-4EAB-9711-1E6DF058918F,2012-09-12T19:58:22,2019-06-30T02:31:01
2019-06,424005-TECHNO0402,TECHNOLOGY DRIVE,On street,40.43132276069399,-79.96138920122337,Inactive,424 - Technology Drive,424 - Technology Drive|OAKLAND1|407 - Oakland 1|Z - Inactive/Removed Terminals,1DC06448-2741-4266-A3A2-1E79B5673369,2013-07-05T12:50:41,2019-06-30T02:31:01
2019-06,419011-BROOKL0908,BROOKLINE BLVD,On street,40.391786442902,-80.01753182877183,Active,419 - Brookline,BROOKLINE|419 - Brookline,03F8E970-EB4C-4661-8B7F-1F15AF537222,2013-08-16T11:10:43,2019-06-30T02:31:01
2019-06,419017-BROOKL0701,BROOKLINE BLVD,On street,40.39467765203913,-80.0210639834404,Active,419 - Brookline,BROOKLINE|419 - Brookline,CD31BAEF-53D0-41B1-AC5A-1F47C5730037,2013-12-13T12:13:27,2019-06-30T02:31:01
2019-06,410152-MARMOR5102,MARGARET MORRISON ST,On street,40.442431818177056,-79.93793427944183,Active,410 - Oakland 4,OAKLAND4|410 - Oakland 4,695DD94D-A821-4804-91F2-1F7142B9AD03,2012-08-28T14:24:55,2019-06-30T02:31:01
2019-06,401527-WOODST0502,WOOD ST,On street,40.4411326418682,-80.00023601206016,Active,401 - Downtown 1,401 - Downtown 1|DOWNTOWN1,35974BDB-94B5-4258-828E-1F736DF43A28,2015-09-28T15:24:59,2019-06-30T02:31:01
2019-06,420001-GRANDV1302,GRANDVIEW AVE,On street,40.43840389560728,-80.0196062588293,Active,420 - Mt. Washington,MT.WASH|420 - Mt. Washington,4DD7C49F-A369-4EE8-8860-1FB830E0E126,2014-12-05T14:10:49,2019-06-30T02:31:01
2019-06,403388-5THAVE2401,5TH AVE.,On street,40.4370082285724,-79.97023773186811,Inactive,403 - Uptown,403 - Uptown|Z - Inactive/Removed Terminals,474B253F-348B-4816-A0B3-1FD200B26394,2016-11-02T19:36:33,2019-06-30T02:31:01
2019-06,415073-S23RD-0001,S 23RD,On street,40.428161498393436,-79.97312754392624,Active,415 - SS & SSW,SOUTHSIDE|415 - SS & SSW,BA2B3309-C7AC-40D6-AE09-205B2A828483,2012-09-12T20:03:26,2019-06-30T02:31:01
2019-06,408219-BIGELO4202,BIGELOW BLVD,On street,40.44593462678332,-79.95587825775146,Active,408 - Oakland 2,OAKLAND2|408 - Oakland 2,CA2D5240-E6C9-4ADF-B146-2126900E0213,2012-08-29T20:01:29,2019-06-30T02:31:01
2019-06,409343-BIGELO3802,BIGELOW BLVD,On street,40.45523986154291,-79.95486545561107,Inactive,409 - Oakland 3,Z - Inactive/Removed Terminals,ECEE54EA-CD14-4C21-9D4A-2186910D1815,2017-02-21T13:01:04,2019-06-30T02:31:01
2019-06,402415-FTPITT0401,FORT PITT BLVD,On street,40.436323920421806,-79.99968141317368,Active,402 - Downtown 2,402 - Downtown 2|DOWNTOWN2,1A7F036E-1D11-4814-B86D-21E945159B71,2012-11-05T16:00:21,2019-06-30T02:31:01
2019-06,422009-GENROB0204,W GENERAL ROBINSON ST,On street,40.44788599576016,-80.00592827796936,Active,422 - Northshore,422 - Northshore|NORTHSHORE,3D2193B3-35C8-433C-9C44-220271FDE5B1,2012-07-23T12:43:54,2019-06-30T02:31:01
2019-06,404428-SMALLM1102,SMALLMAN ST,On street,40.44597056730391,-79.99347047238734,Active,404 - Strip Disctrict,404 - Strip Disctrict|STRIPDIST,85B1A4EA-55C5-410E-B4B3-22087B8DE7F8,2012-11-19T20:11:42,2019-06-30T02:31:01
2019-06,408198-THCKRY0105,THACKERAY AVE,On street,40.4442669370593,-79.95784431695938,Active,408 - Oakland 2,OAKLAND2|408 - Oakland 2,20A0FAE7-5DE3-49D9-952D-221822E1312F,2012-08-29T17:01:56,2019-06-30T02:31:01
2019-06,415071-S21ST-0001,S 21ST,On street,40.42652705747643,-79.97655808925628,Active,415 - SS & SSW,SOUTHSIDE|415 - SS & SSW,BA1B265C-7C56-4AC0-AD83-2236E252B954,2012-09-12T20:05:10,2019-06-30T02:31:01
2019-06,401525-6THAVE0301,6TH AVE,On street,40.4417843774517,-79.99852946022656,Active,401 - Downtown 1,401 - Downtown 1|DOWNTOWN1,9BB36591-1C61-4A37-9AB3-2245E4BBFF4B,2014-10-08T09:56:31,2019-06-30T02:31:01
2019-06,PBP413-2,Virtual Terminal for ParkMobile,Virtual Zone,,,Active,413 - Squirrel Hill,SQ.HILL2,1BA2028B-1F87-40D8-AA38-232D9E4E8F8E,2015-10-23T17:34:58,2019-06-30T02:31:01
2019-06,405030-BUTLER3801,BUTLER ST,On street,40.46705764871371,-79.9641949161969,Active,405 - Lawrenceville,405 - Lawrenceville|LAWRENCEV,60DAB594-E065-4A81-8E1A-23A163C01B88,2015-04-01T12:02:25,2019-06-30T02:31:01
2019-06,404526-PENAVE2301,PENN AVE,On street,40.453164052119895,-79.98107915009308,Active,404 - Strip Disctrict,404 - Strip Disctrict|STRIPDIST,105AB4AE-39A2-4638-BD3D-2409B1DF8459,2015-11-05T14:16:31,2019-06-30T02:31:01
2019-06,415349-S27TH-0006,S 27TH,On street,40.426881025678,-79.96721735218671,Active,415 - SS & SSW,SOUTHSIDE|415 - SS & SSW,EB6957AD-22E1-401B-BD67-241941A8F43A,2013-07-16T12:13:46,2019-06-30T02:31:01
2019-06,413016-BARLET5801,BARLETT AVE,On street,40.435956910807704,-79.92309663558194,Active,413 - Squirrel Hill,SQ.HILL1|413 - Squirrel Hill,F2FFF7DE-AFAF-40ED-9AC5-248EFB421B16,2013-07-08T12:18:54,2019-06-30T02:31:01
2019-06,408231-FORBES3905,FORBES AVE,On street,40.44282681184509,-79.95515808463096,Active,408 - Oakland 2,OAKLAND2|408 - Oakland 2,206E3D33-E3BC-4A8A-AC96-2496C7B112B1,2012-08-29T16:51:36,2019-06-30T02:31:01
2019-06,413027-MURRAY1901,MURRAY AVE,On street,40.435821443571015,-79.92277206994055,Active,413 - Squirrel Hill,SQ.HILL1|413 - Squirrel Hill,67EA1D98-9F51-4874-9B8B-24C9537BE3A3,2013-07-09T12:13:15,2019-06-30T02:31:01
2019-06,304526-TAMELO0003,TAMELLO BEATTY LOT,Lot,,,Inactive,304 - Tamello Beatty Lot,Z - Inactive/Removed Terminals,6A242E46-52EB-48AA-865A-24EF78029017,2012-11-29T12:38:18,2019-06-30T02:31:01
2019-06,402504-2NDAVE0710,2ND AVE,On street,40.434357924858105,-79.99066114425659,Removed,402 - Downtown 2,402 - Downtown 2|Z - Inactive/Removed Terminals,E2A1810E-5200-4DF8-984E-24FEE175801B,2012-11-12T19:32:52,2019-06-30T02:31:01
2019-06,407130-TERACE3602,TERRACE ST,On street,40.443305496151105,-79.96130704879761,Active,407 - Oakland 1,OAKLAND1|407 - Oakland 1,3EF6E5AA-248E-47DC-ACA3-251B91B3D8A1,2012-08-13T12:26:16,2019-06-30T02:31:01
2019-06,406595-LIBRTY4706,LIBERTY AVE,On street,40.461444144484545,-79.94881416319464,Active,406 - Bloomfield (On-street),BLOOMFIELD|406 - Bloomfield (On-street),27640116-3420-471D-9835-254E63705573,2012-12-05T13:01:29,2019-06-30T02:31:01
2019-06,401509-FORBES0403,FORBES AVE,On street,40.43900179096519,-79.99790468220902,Active,401 - Downtown 1,401 - Downtown 1|DOWNTOWN1,C1046E46-BA5D-4B7F-AFA3-2555D498660C,2012-11-15T17:51:32,2019-06-30T02:31:01
2019-06,403364-FORBES1101,FORBES AVE,On street,40.43789888494093,-79.98892431779097,Active,403 - Uptown,403 - Uptown|UPTOWN2,BDFED702-629D-473E-AFCB-2558D56E0C1B,2013-07-29T01:09:08,2019-06-30T02:31:01
2019-06,427004-BVILLE0404,BROWNSVILLE RD,On street,40.41245247977202,-79.9894742667675,Active,427 - Knoxville,KNOXVILLE|427 - Knoxville,474F7248-1C8A-4625-8AD2-261648351B0B,2018-02-26T14:46:29,2019-06-30T02:31:01
2019-06,406581-MATLDA0301,MATILDA ST,On street,40.46220787304941,-79.94677472883609,Active,406 - Bloomfield (On-street),BLOOMFIELD|406 - Bloomfield (On-street),D2FB5F95-B269-4F2D-97E2-2621AAE40F91,2012-12-05T12:52:07,2019-06-30T02:31:01
2019-06,403375-PRIDE-0002,PRIDE ST,On street,40.4387885311998,-79.98514713988112,Active,403 - Uptown,403 - Uptown|UPTOWN2,28340BF7-C4DE-48A9-9688-269FFE6C747D,2013-07-30T11:45:40,2019-06-30T02:31:01
2019-06,420017-GRANDV0404,GRANDVIEW AVE,On street,40.43500550523274,-80.01192623376028,Active,420 - Mt. Washington,MT.WASH|420 - Mt. Washington,DCA2D0A0-00C3-4526-B1C1-26B903F05D4B,2016-07-23T11:44:44,2019-06-30T02:31:01
2019-06,421093-WCOMON0602,WEST COMMONS,On street,40.45074926179376,-80.00727152821128,Active,421 - NorthSide,NORTHSIDE|421 - NorthSide,7CD52844-2114-411A-B23F-27270CA4D479,2017-09-18T18:20:15,2019-06-30T02:31:01
2019-06,410171-SCHEDR4401,SCHENLEY DR,On street,40.44056398722467,-79.94748294353485,Active,410 - Oakland 4,OAKLAND4|410 - Oakland 4,0B457706-B224-4CC2-B874-273F0F9BECE6,2012-08-27T11:31:05,2019-06-30T02:31:01
2019-06,412612-BAUMBV5906,BAUM BLVD,On street,40.46051379616204,-79.92567710339187,Active,412 - East Liberty,EASTLIB|412 - East Liberty,9667607A-38AF-4EFE-93D0-274130D4C4FA,2013-08-15T12:01:37,2019-06-30T02:31:01
2019-06,408234-SBQUET0102,S BOUQUET ST,On street,40.4422654506403,-79.95711743831635,Active,408 - Oakland 2,OAKLAND2|408 - Oakland 2,D55C961E-37F3-4BAD-95BA-276BB039C45A,2012-08-29T16:50:58,2019-06-30T02:31:01
2019-06,422010-GENROB0203,W GENERAL ROBINSON ST,On street,40.447930901073896,-80.00650227069855,Active,422 - Northshore,422 - Northshore|NORTHSHORE,E901DF56-9E74-4154-91AC-2776599309E8,2012-07-23T12:44:00,2019-06-30T02:31:01
2019-06,415350-S27TH-0001,S 27TH ST,On street,40.42720357075531,-79.96684720750636,Active,415 - SS & SSW,SOUTHSIDE|415 - SS & SSW,2CDF8DC9-E04D-482A-8A4C-2795A2AC91C0,2014-09-08T13:46:28,2019-06-30T02:31:01
2019-06,403319-RBSTEX0409,ROBINSON ST EXT,On street,40.447320594469986,-79.96572196483612,Inactive,403 - Uptown,403 - Uptown|Z - Inactive/Removed Terminals,5D12657A-A7D8-4C93-828C-27C1F8AAC725,2012-09-05T13:10:10,2019-06-30T02:31:01
2019-06,415070-S20TH-0003,S 20TH,On street,40.42839221577344,-79.97755587100982,Active,415 - SS & SSW,SOUTHSIDE|415 - SS & SSW,6FEF2FAA-1DA4-40D2-811B-282266161799,2012-09-12T20:04:57,2019-06-30T02:31:01
2019-06,413007-FORBES5808,FORBES AVE,On street,40.437963098516725,-79.9204078966082,Active,413 - Squirrel Hill,SQ.HILL1|413 - Squirrel Hill,A06E4754-BE78-4F97-95EC-2845712105F9,2013-07-09T12:13:15,2019-06-30T02:31:01
2019-06,421008-CEDAR-0602,CEDAR AVE,On street,40.453084670399306,-80.00171109325407,Active,421 - NorthSide,NORTHSIDE|421 - NorthSide,3D2DDDEC-551C-4425-86EC-284756D73975,2013-08-08T11:34:08,2019-06-30T02:31:01
2019-06,415069-S20TH-0001,S 20TH,On street,40.42875768681748,-79.97748881578445,Active,415 - SS & SSW,SOUTHSIDE|415 - SS & SSW,C50E7067-091D-46BF-AAFC-2851D8FB406C,2012-09-12T20:04:44,2019-06-30T02:31:01
2019-06,421048-WOHIO-0704,WEST OHIO ST,On street,40.452555955639056,-80.013609682209,Active,421 - NorthSide,NORTHSIDE|421 - NorthSide,B8B7203B-E118-4233-B11B-28731274D2BC,2013-08-07T11:21:23,2019-06-30T02:31:01
2019-06,412628-BAUMBV5704,BAUM BLVD,On street,40.458760937026305,-79.93265708952094,Active,412 - East Liberty,EASTLIB|412 - East Liberty,0D7BB9F8-B310-42DA-A637-28A03723CAED,2017-02-02T16:23:52,2019-06-30T02:31:01
2019-06,421043-RIDGE-0805,RIDGE AVE,On street,40.450285092170496,-80.015612682209,Active,421 - NorthSide,NORTHSIDE|421 - NorthSide,4D29DB59-8D07-48AF-B465-2923BE1C8BFE,2013-08-06T11:29:45,2019-06-30T02:31:01
2019-06,402414-FTPITT0203,FORT PITT BLVD,On street,40.437679464357636,-80.0032326579094,Active,402 - Downtown 2,402 - Downtown 2|DOWNTOWN2,6D5F8908-9B00-4BEF-9613-296B37784380,2012-11-05T15:59:30,2019-06-30T02:31:01
2019-06,415103-S28TH-0001,S 28TH,On street,40.42638106862901,-79.96552348136902,Active,415 - SS & SSW,SOUTHSIDE|415 - SS & SSW,EBE4C3BF-D1A0-42F3-8D43-29711F9DB9E0,2012-09-10T13:55:27,2019-06-30T02:31:01
2019-06,410163-SCHEDR4201,SCHENLEY DR,On street,40.44225932667404,-79.95123267173767,Active,410 - Oakland 4,OAKLAND4|410 - Oakland 4,818F2266-984A-4D99-B0FE-29CB5B943EF9,2012-08-28T14:26:55,2019-06-30T02:31:01
2019-06,410172-SCHEDR4602,SCHENLEY DR,On street,40.43900844249716,-79.94670242071152,Active,410 - Oakland 4,OAKLAND4|410 - Oakland 4,C7726DCC-8686-47A2-BCFA-29DA2B050948,2012-08-27T11:32:38,2019-06-30T02:31:01
2019-06,415013-JANEST2002,JANE ST,On street,40.42668733857334,-79.97733324766159,Active,415 - SS & SSW,SOUTHSIDE|415 - SS & SSW,62DC5377-3915-4329-8E53-29F175C76284,2012-09-12T19:54:30,2019-06-30T02:31:01
2019-06,PBP345,Virtual Terminal for ParkMobile,Virtual Lot,,,Active,345 - 20th & Sidney Lot,20-SIDNE-L,0DD80764-CA47-4EAF-8178-2A1CFA2137B3,2015-10-23T16:36:25,2019-06-30T02:31:01
2019-06,403389-5THAVE2301,5TH AVE.,On street,40.437588006856295,-79.97197580330976,Inactive,403 - Uptown,403 - Uptown|Z - Inactive/Removed Terminals,B23C705A-4F63-43B7-9730-2A34CD69EF6F,2016-11-02T19:36:54,2019-06-30T02:31:01
2019-06,409287-TNYSON0102,TENNYSON AVE,On street,40.44584889588472,-79.95360910892486,Active,409 - Oakland 3,409 - Oakland 3|OAKLAND3,B2CF1077-E406-4A52-80B2-2A39110CC511,2012-09-04T16:21:04,2019-06-30T02:31:01
2019-06,415090-SIDNEY2602,SIDNEY ST,On street,40.42812678863059,-79.96755927801132,Active,415 - SS & SSW,SOUTHSIDE|415 - SS & SSW,ABE0DD33-6543-4D1F-A513-2ACC4B4B5EDD,2012-09-10T13:51:54,2019-06-30T02:31:01
2019-06,407112-FORBES3601,FORBES AVE,On street,40.44085998575416,-79.95803475379944,Active,407 - Oakland 1,OAKLAND1|407 - Oakland 1,6D5696AF-06BA-4B4D-8742-2AE89C6974A8,2012-08-13T12:24:20,2019-06-30T02:31:01
2019-06,407107-FORBES3303,FORBES AVE,On street,40.43811939781797,-79.96181532740593,Active,407 - Oakland 1,OAKLAND1|407 - Oakland 1,6E70EE75-7602-498C-9767-2B0D9C3B0223,2012-08-13T12:23:47,2019-06-30T02:31:01
2019-06,408193-5THAVE4201,FIFTH AVE,On street,40.444742549239734,-79.95447546243667,Active,408 - Oakland 2,OAKLAND2|408 - Oakland 2,FBFCC0DE-3FD3-4C7F-9BD7-2B6E3A5B4704,2012-08-29T19:57:54,2019-06-30T02:31:01
2019-06,419006-BROOKL0504,BROOKLINE BLVD,On street,40.39557597427864,-80.02266033357864,Active,419 - Brookline,BROOKLINE|419 - Brookline,95AA00D9-7CD1-457E-8467-2BAA0B25BDF4,2013-07-23T15:26:26,2019-06-30T02:31:01
2019-06,420005-SHILOH0202,SHILOH ST,On street,40.430508307580354,-80.00735457052542,Active,420 - Mt. Washington,MT.WASH|420 - Mt. Washington,BF93F799-9A86-4A71-9372-2BBB4D9C9BE6,2013-08-19T11:44:38,2019-06-30T02:31:01
2019-06,410188-SCHEDR0304,SCHENLEY DR,On street,40.442215438232814,-79.95322421193123,Active,410 - Oakland 4,OAKLAND4|410 - Oakland 4,0DB507F2-57CA-46D5-B8A8-2BD9388B90F6,2012-08-27T11:44:52,2019-06-30T02:31:01
2019-06,403350-5THAVE0701,5TH AVE,On street,40.438987999999995,-79.99355945767212,Active,403 - Uptown,403 - Uptown|UPTOWN2,62166FBD-3501-4EDF-906A-2BE43220AF9B,2013-07-31T01:15:21,2019-06-30T02:31:01
2019-06,415041-ECARSN2102,E CARSON ST,On street,40.42839017403018,-79.97554153203964,Active,415 - SS & SSW,SOUTHSIDE|415 - SS & SSW,2035BD8E-812E-4CC6-8F3B-2C05C340BE37,2012-09-12T19:59:21,2019-06-30T02:31:01
2019-06,415030-ECARSN1802,E CARSON ST,On street,40.428631099306365,-79.97979819774627,Active,415 - SS & SSW,SOUTHSIDE|415 - SS & SSW,CD91ACF0-59AC-4E31-A92C-2C54AEF7BB1D,2012-09-12T19:57:19,2019-06-30T02:31:01
2019-06,405003-BUTLER4101,BUTLER ST,On street,40.46965156686789,-79.96124575929815,Active,405 - Lawrenceville,405 - Lawrenceville|LAWRENCEV,646C4089-06EA-4F73-89DD-2C6DEEF9BBCD,2013-09-03T13:38:59,2019-06-30T02:31:01
2019-06,412575-PENNAV5801,PENN AVE,On street,40.462432074997274,-79.92731193005943,Active,412 - East Liberty,EASTLIB|412 - East Liberty,EAFDBAA7-64AC-4830-B894-2D1576234955,2013-08-09T11:25:28,2019-06-30T02:31:01
2019-06,403331-CRAWFD0304,CRAWFORD ST,On street,40.441937904969436,-79.98675891534424,Active,403 - Uptown,UPTOWN1|403 - Uptown,02B0DA36-97CD-49D8-B17D-2D26A92466A8,2013-08-05T19:57:09,2019-06-30T02:31:01
2019-06,413019-MURRAY1702,MURRAY AVE,On street,40.43780955647172,-79.92304304662707,Active,413 - Squirrel Hill,SQ.HILL1|413 - Squirrel Hill,490C0F13-2005-4CDD-A917-2D60C4882058,2013-07-08T12:18:54,2019-06-30T02:31:01
2019-06,407108-FORBES3401,FORBES AVE,On street,40.438730808681825,-79.9609811604023,Inactive,407 - Oakland 1,407 - Oakland 1|Z - Inactive/Removed Terminals,665E9497-54BA-48A0-B0FB-2D6A25510B0B,2012-08-13T12:23:53,2019-06-30T02:31:01
2019-06,402400-COURT-0501,COURT PL,On street,40.43697820156967,-79.99767156564138,Active,402 - Downtown 2,402 - Downtown 2|DOWNTOWN2,D34A862D-D88F-4CF5-AA6D-2DAF15329E6A,2012-11-05T15:04:02,2019-06-30T02:31:01
2019-06,401360-WILLPN0504,WILLIAM PENN PL,On street,40.44074771060327,-79.997039437294,Active,401 - Downtown 1,401 - Downtown 1|DOWNTOWN1,3DCB7D73-4662-4BBE-862B-2DC75C2F917F,2012-11-05T14:48:24,2019-06-30T02:31:01
2019-06,401368-PENAVE0901,PENN AVE,On street,40.44392138093136,-79.9979962245369,Active,401 - Downtown 1,401 - Downtown 1|DOWNTOWN1,88096FD3-DBED-47D8-BD82-2E0A02A3C06E,2012-11-05T14:49:05,2019-06-30T02:31:01
2019-06,425004-LIVING6403,LIVING PL,On street,40.45598404777885,-79.91632291677888,Inactive,425 - Bakery Sq,425 - Bakery Sq|Z - Inactive/Removed Terminals,70510911-8E33-4842-9DB1-2E9A4DEC0ACA,2016-04-27T14:31:26,2019-06-30T02:31:01
2019-06,404442-14THST0102,14TH ST,On street,40.44721562978563,-79.9895619067459,Active,404 - Strip Disctrict,404 - Strip Disctrict|STRIPDIST,25F5E388-8A2B-44E5-A409-2EB708FA1C3C,2012-11-19T20:18:47,2019-06-30T02:31:01
2019-06,421028-ALLGHY0004,ALLEGHENY SQ,On street,40.45292964805767,-80.00463906134223,Active,421 - NorthSide,NORTHSIDE|421 - NorthSide,4C5AD1B9-46AB-49BA-9C54-2ED848066B61,2013-08-08T11:35:16,2019-06-30T02:31:01
2019-06,404469-PENAVE1902,PENN AVE,On street,40.450784214471746,-79.98423879231262,Active,404 - Strip Disctrict,404 - Strip Disctrict|STRIPDIST,28DC6568-53E5-4D80-BD44-2EECC3DCBCF6,2012-11-19T20:33:38,2019-06-30T02:31:01
2019-06,401512-FORBES0405,FORBES AVE,On street,40.438845421751004,-79.99754891667175,Inactive,401 - Downtown 1,401 - Downtown 1|Z - Inactive/Removed Terminals,E6F1B412-9731-4AE2-A463-2F463D1EC144,2012-11-16T12:40:53,2019-06-30T02:31:01
2019-06,409306-WNTHRP4602,WINTHROP ST,On street,40.44587339043835,-79.94860410690307,Active,409 - Oakland 3,409 - Oakland 3|OAKLAND3,CEE696F3-438A-40BB-AAF4-2F67BB4EB762,2012-09-04T16:09:37,2019-06-30T02:31:01
2019-06,409280-5THAVE4502,FIFTH AVE,On street,40.44672457063161,-79.95008736848831,Active,409 - Oakland 3,409 - Oakland 3|OAKLAND3,AA2412FC-75EC-4E5D-8547-2F681E5618BA,2012-09-04T16:19:17,2019-06-30T02:31:01
2019-06,403366-FORBES1001,FORBES AVE,On street,40.437958381343286,-79.9904133816147,Active,403 - Uptown,403 - Uptown|UPTOWN2,A16FED30-FFAA-48BF-A9AF-2F740AD9B4BD,2013-07-29T01:09:08,2019-06-30T02:31:01
2019-06,409245-SDTHRG0401,S DITHRIDGE ST,On street,40.44459149680891,-79.9502295255661,Active,409 - Oakland 3,409 - Oakland 3|OAKLAND3,EC15F126-264E-4474-AAE8-2F7AEEB31DA4,2012-09-04T16:15:05,2019-06-30T02:31:01
2019-06,420015-GRANDV0302,GRANDVIEW AVE,On street,40.43436486615644,-80.01124817131313,Active,420 - Mt. Washington,MT.WASH|420 - Mt. Washington,FAD56E58-33CC-4DF9-875B-2F966B412C0F,2016-07-23T11:44:06,2019-06-30T02:31:01
2019-06,409293-NBLFLD0104,N BELLEFIELD,On street,40.447867625395894,-79.95256572961807,Active,409 - Oakland 3,409 - Oakland 3|OAKLAND3,F862D9B8-78BF-4F77-AC75-2F9DC2354CE2,2012-09-04T16:22:11,2019-06-30T02:31:01
2019-06,402426-COMMON0101,COMMONWEALTH PL,On street,40.4421011240188,-80.00715404748916,Active,402 - Downtown 2,402 - Downtown 2|DOWNTOWN2,9F35F603-F169-4845-B3E9-2FA68251076A,2012-11-05T16:06:59,2019-06-30T02:31:01
2019-06,412585-SHERDN0102,SHERIDAN ST,On street,40.461718101104644,-79.92333095337295,Active,412 - East Liberty,EASTLIB|412 - East Liberty,1B742F87-5BDF-4160-BE51-2FB1B952647C,2013-08-14T11:22:05,2019-06-30T02:31:01
2019-06,411590-CENTRE5203,CENTRE AVE,On street,40.45552603295848,-79.94013642195131,Active,411 - Shadyside,411 - Shadyside|SHADYSIDE2,62E6ED97-CBCE-4850-8F41-30094661E061,2013-07-25T19:13:07,2019-06-30T02:31:01
2019-06,407119-SEMPLE0201,SEMPLE ST,On street,40.440061807427995,-79.9585497379303,Active,407 - Oakland 1,OAKLAND1|407 - Oakland 1,9D191B30-5005-4B6C-B483-3093C05C43E6,2012-08-13T12:25:06,2019-06-30T02:31:01
2019-06,415047-ECARSN2302,E CARSON ST,On street,40.42820437513454,-79.97243285179138,Inactive,415 - SS & SSW,SOUTHSIDE|415 - SS & SSW,B9B92ECF-5AF0-4170-B445-31301B056D01,2012-09-12T19:26:48,2019-06-30T02:31:01
2019-06,404522-PENAVE2203,PENN AVE,On street,40.452702786570484,-79.98172824467468,Active,404 - Strip Disctrict,404 - Strip Disctrict|STRIPDIST,2DD7BA8B-5944-4642-84D0-31674B9AFAE8,2015-03-20T19:21:06,2019-06-30T02:31:01
2019-06,401371-FTDUQN0802,FORT DUQUESNE,On street,40.445007910796214,-79.9991825222969,Active,401 - Downtown 1,401 - Downtown 1|DOWNTOWN1,9A9E0375-4B00-4E7E-87CF-31B06C97AF01,2012-11-05T14:49:22,2019-06-30T02:31:01
2019-06,421049-WOHIO-0707,WEST OHIO ST,On street,40.452318399040564,-80.0133149766865,Active,421 - NorthSide,NORTHSIDE|421 - NorthSide,1E5B2837-2CFD-4099-A14F-3226473D5340,2013-08-07T11:21:29,2019-06-30T02:31:01
2019-06,413002-FORWRD5804,FORWARD AVE,On street,40.429338355754005,-79.92155075766084,Active,413 - Squirrel Hill,SQ.HILL1|413 - Squirrel Hill,FE007C22-8DB8-4E36-AB15-322DC5D451A4,2013-07-12T01:23:41,2019-06-30T02:31:01
2019-06,411577-BELLFN0702,BELLEFONTE ST,On street,40.451371307842635,-79.93392190674592,Active,411 - Shadyside,SHADYSIDE1|411 - Shadyside,FACA8623-4E9C-41CD-8AAC-3237F897F8A3,2012-12-05T12:28:15,2019-06-30T02:31:01
2019-06,421019-EOHIO-0501,EAST OHIO ST,On street,40.45352653424795,-80.00089936441804,Active,421 - NorthSide,NORTHSIDE|421 - NorthSide,F6DFA966-5696-4E07-91A3-3273C39E4CDD,2013-08-06T11:28:50,2019-06-30T02:31:01
2019-06,413026-MURRAY1904,MURRAY AVE,On street,40.435059999999986,-79.92292106994057,Active,413 - Squirrel Hill,SQ.HILL1|413 - Squirrel Hill,7A7469E0-DBE6-4B34-A003-3274F9A8E762,2013-07-09T12:13:15,2019-06-30T02:31:01
2019-06,PBP411-2,Virtual Terminal for ParkMobile,Virtual Zone,,,Active,411 - Shadyside,SHADYSIDE2,4A8E1694-4CFE-4C0D-B04E-328EEEA09E48,2015-10-23T17:27:09,2019-06-30T02:31:01
2019-06,411589-CENTRE5302,CENTRE AVE,On street,40.455777647468714,-79.93876731656758,Active,411 - Shadyside,411 - Shadyside|SHADYSIDE2,13667043-0B24-417C-810B-32CCEC80B08F,2013-07-25T19:13:07,2019-06-30T02:31:01
2019-06,406610-LIBRTY5104,LIBERTY AVE,On street,40.45837106086118,-79.94308320982168,Active,406 - Bloomfield (On-street),BLOOMFIELD|406 - Bloomfield (On-street),17578CB2-00B6-4B39-9B96-331070D76FE4,2012-12-05T13:08:52,2019-06-30T02:31:01
2019-06,421089-ECOMON0706,EAST COMMONS,On street,40.45262293274177,-80.0035110711724,Active,421 - NorthSide,NORTHSIDE|421 - NorthSide,12E2C964-0E92-4951-B3EA-3324873A92DD,2017-09-18T18:20:15,2019-06-30T02:31:01
2019-06,421034-NCOMON0002,NORTH COMMONS,On street,40.45427686715588,-80.0047147521496,Active,421 - NorthSide,NORTHSIDE|421 - NorthSide,981AF660-99CB-4867-8934-334C51C4381F,2013-08-08T11:36:01,2019-06-30T02:31:01
2019-06,PBP411-1,Virtual Terminal for ParkMobile,Virtual Zone,,,Active,411 - Shadyside,SHADYSIDE1,68430028-9AA8-4BE8-A02F-33AB43678BBB,2015-10-23T17:24:47,2019-06-30T02:31:01
2019-06,408217-PRKMAN0206,PARKMAN AVE,On street,40.44695114196002,-79.95806157588959,Active,408 - Oakland 2,OAKLAND2|408 - Oakland 2,A5A58CC6-D7AA-467E-8991-33C4DF415FE8,2012-08-29T20:01:11,2019-06-30T02:31:01
2019-06,406592-LIBRTY4703,LIBERTY AVE,On street,40.46143544814097,-79.94847420122335,Active,406 - Bloomfield (On-street),BLOOMFIELD|406 - Bloomfield (On-street),1CAAEBFB-9864-4616-ADAD-33EB6D3C2DE3,2012-12-05T12:59:56,2019-06-30T02:31:01
2019-06,415065-S16TH-0002,S 16TH,On street,40.42909457177491,-79.98271510004997,Active,415 - SS & SSW,SOUTHSIDE|415 - SS & SSW,D2DD8592-A64F-4660-AFE2-33F7225AD4A7,2012-09-12T20:03:59,2019-06-30T02:31:01
2019-06,406587-LIBRTY4601,LIBERTY AVE,On street,40.4622990838708,-79.95014591342766,Active,406 - Bloomfield (On-street),BLOOMFIELD|406 - Bloomfield (On-street),9DC25AD4-F994-4603-9253-343C663D7DC1,2012-12-05T12:57:41,2019-06-30T02:31:01
2019-06,409236-NDTHRG0302,N DITHRIDGE ST,On street,,,Inactive,409 - Oakland 3,Z - Inactive/Removed Terminals,BCD86257-D38E-46FD-9994-344946F39E9C,2012-09-04T16:07:31,2019-06-30T02:31:01
2019-06,421047-RIDGEX0502,RIDGE AVE EXT,On street,40.45125110267839,-80.00976195337296,Active,421 - NorthSide,NORTHSIDE|421 - NorthSide,8C29509B-C509-4494-A506-34F4C70B8151,2013-08-07T11:21:14,2019-06-30T02:31:01
2019-06,403336-COLWEL1202,COLWELL ST,On street,40.43940790410022,-79.98567068220905,Active,403 - Uptown,403 - Uptown|UPTOWN2,4C514730-CDF3-4973-B052-34FC80FA7DEB,2013-08-05T19:57:33,2019-06-30T02:31:01
2019-06,405008-BUTLER4301,BUTLER ST,On street,40.471144428124866,-79.96010000000001,Active,405 - Lawrenceville,405 - Lawrenceville|LAWRENCEV,8428244E-5569-4812-A544-355261DA6AB6,2013-09-03T13:38:59,2019-06-30T02:31:01
2019-06,404447-21STST0101,21ST ST,On street,40.45224824611403,-79.98369527116392,Inactive,404 - Strip Disctrict,404 - Strip Disctrict|Z - Inactive/Removed Terminals,A1969669-6E1F-4BD3-B9F1-355B2FED44DE,2012-11-19T20:20:57,2019-06-30T02:31:01
2019-06,409304-WNTHRP4502,WINTHROP ST,On street,40.44575295879714,-79.94913518428802,Active,409 - Oakland 3,409 - Oakland 3|OAKLAND3,6316045E-40A5-4F9D-8771-358031649F94,2012-09-04T16:09:56,2019-06-30T02:31:01
2019-06,408208-OHARA-3903,OHARA ST,On street,40.44441288707774,-79.95817691087723,Inactive,408 - Oakland 2,408 - Oakland 2|Z - Inactive/Removed Terminals,9DBAB181-B7BB-472E-AF02-359537B9E964,2012-08-29T16:54:01,2019-06-30T02:31:01
2019-06,412631-BAUMBV5804,BAUM BLVD,On street,40.45944664938041,-79.92988904981758,Active,412 - East Liberty,EASTLIB|412 - East Liberty,9B6C0508-6B43-4BDA-89CE-359F9324D8F0,2017-02-02T16:07:31,2019-06-30T02:31:01
2019-06,410158-SCHEDR3901,SCHENLEY DR,On street,40.44119885143605,-79.95349109172821,Active,410 - Oakland 4,OAKLAND4|410 - Oakland 4,43BC1224-6080-47AF-88CF-35A2BD60A708,2012-08-28T14:25:59,2019-06-30T02:31:01
2019-06,404440-12THST0101,12TH ST,On street,40.445414535947975,-79.99194774355123,Active,404 - Strip Disctrict,404 - Strip Disctrict|STRIPDIST,F496E614-AA01-464F-AA1F-35B576969CC4,2012-11-19T20:17:51,2019-06-30T02:31:01
2019-06,PBP334,Virtual Terminal for ParkMobile,Virtual Lot,,,Active,334 - Taylor Street Lot,TAYLOR-L,10DA3E33-5F2D-40B0-A3FE-35E2201503C1,2015-10-23T17:37:09,2019-06-30T02:31:01
2019-06,401378-FORBES0301,FORBES AVE,On street,40.439896454722806,-80.00009715557098,Active,401 - Downtown 1,401 - Downtown 1|DOWNTOWN1,499C1C1C-3310-4CA9-A1CF-362175D7B7C5,2016-10-20T12:50:13,2019-06-30T02:31:01
2019-06,403377-5THAVE1501,5TH AVE,On street,40.43859178718838,-79.98452076319154,Active,403 - Uptown,403 - Uptown|UPTOWN2,FFE15A96-B081-4C2B-A16C-3646191AF57E,2015-06-06T10:26:40,2019-06-30T02:31:01
2019-06,411476-WALNUT5402,WALNUT ST,On street,40.450679082133085,-79.93516068220901,Active,411 - Shadyside,SHADYSIDE1|411 - Shadyside,744E52C3-9F7E-411F-8741-36AD70E0F36A,2012-12-05T12:23:20,2019-06-30T02:31:01
2019-06,412613-BAUMBV5905,BAUM BLVD,On street,40.46065875949138,-79.9254603411045,Active,412 - East Liberty,EASTLIB|412 - East Liberty,279B480E-BDB6-481F-BEF2-36DA8BF05D91,2013-08-15T12:02:17,2019-06-30T02:31:01
2019-06,421031-ALLGHY0008,ALLEGHENY SQ,On street,40.452202102550736,-80.00407268982457,Inactive,421 - NorthSide,421 - NorthSide|Z - Inactive/Removed Terminals,D6E5227C-1E98-45D9-A70F-374F7D13CBD7,2013-08-08T11:35:38,2019-06-30T02:31:01
2019-06,421004-CEDAR-0904,CEDAR AVE,On street,40.45583078429392,-80.00260793865777,Active,421 - NorthSide,NORTHSIDE|421 - NorthSide,FB7D44AB-8D29-4629-A5D3-377B9E967C1F,2013-08-08T11:33:31,2019-06-30T02:31:01
2019-06,422016-ROONEY0108,ART ROONEY DR,On street,40.44764818521399,-80.01445231017544,Active,422 - Northshore,422 - Northshore|NORTHSHORE,18B04971-BA79-4279-9631-377FEEAAC017,2013-07-16T11:13:43,2019-06-30T02:31:01
2019-06,409334-BIGELO4003,BIGELOW BLVD,On street,40.4515290119933,-79.95458414789027,Active,409 - Oakland 3,409 - Oakland 3|OAKLAND3,470FB636-4E52-45E8-B543-380CCD87555E,2014-12-02T16:26:16,2019-06-30T02:31:01
2019-06,403380-WATSON0804,WATSON ST,On street,40.43832678493545,-79.99156407703782,Active,403 - Uptown,403 - Uptown|UPTOWN2,4B575D6F-18E9-401A-AE89-384A4E0AF22B,2016-05-31T17:57:27,2019-06-30T02:31:01
2019-06,403382-FULLER0102,FULLERTON ST,On street,40.44211827121313,-79.98928141587385,Active,403 - Uptown,UPTOWN1|403 - Uptown,DD470030-56FC-439A-83EE-38632FB7C1E6,2016-10-11T14:38:20,2019-06-30T02:31:01
2019-06,406637-LIBRTY5106,LIBERTY AVE,On street,40.457616752216566,-79.94168052080568,Active,406 - Bloomfield (On-street),BLOOMFIELD|406 - Bloomfield (On-street),FD72D55E-1D0F-456E-A64B-387B7AE6D151,2016-02-08T19:06:40,2019-06-30T02:31:01
2019-06,403344-STEVSN0202,STEVENSON ST,On street,40.43554944357683,-79.98683466749384,Active,403 - Uptown,403 - Uptown|UPTOWN2,0C4B6288-17D4-4E33-AAE0-38AFD0D01E63,2013-07-30T12:07:32,2019-06-30T02:31:01
2019-06,302521-KIRKWD0001,SHERIDAN KIRKWOOD LOT,Lot,40.46178797963549,-79.92312406994057,Active,302 - Sheridan Kirkwood Lot,302 - Sheridan Kirkwood Lot|SHER-KIR-L,4E5AC762-D50C-4BF5-BBFC-393056FF2E3E,2012-11-29T12:33:13,2019-06-30T02:31:01
2019-06,401373-MARKET0001,MARKET ST,On street,,,Removed,401 - Downtown 1,Z - Inactive/Removed Terminals,D14A3169-6B13-4DD4-9F2E-39A9E1E762D5,2012-11-05T14:49:33,2019-06-30T02:31:01
2019-06,412629-BAUMBV5701,BAUM BLVD,On street,40.45877726359226,-79.93262490301277,Active,412 - East Liberty,EASTLIB|412 - East Liberty,0230A8C5-B820-4E14-A02F-39DBFF649207,2017-02-02T16:06:57,2019-06-30T02:31:01
2019-06,422011-GENROB0206,W GENERAL ROBINSON ST,On street,40.44773903270541,-80.00677585601807,Active,422 - Northshore,422 - Northshore|NORTHSHORE,B76C9FAC-2364-486D-A96C-39E8FE2D7C8B,2012-07-23T12:44:06,2019-06-30T02:31:01
2019-06,413044-MURRAY2703,MURRAY AVE,On street,40.42870245021045,-79.9242128834324,Active,413 - Squirrel Hill,SQ.HILL2|413 - Squirrel Hill,C82AD53A-E528-4AB7-B2A4-39ED0971A3E2,2013-07-12T01:52:16,2019-06-30T02:31:01
2019-06,413011-FORBES5805,FORBES AVE,On street,40.438127124343254,-79.92034100000001,Active,413 - Squirrel Hill,SQ.HILL1|413 - Squirrel Hill,D308BAE3-25F7-4838-A8EB-3A8DB4C97D55,2013-07-09T12:13:15,2019-06-30T02:31:01
2019-06,PBP351,Virtual Terminal for ParkMobile,Virtual Lot,,,Active,351 - Brownsville & Sandkey Lot,BROW-SAN-L,7B15D599-0625-4B10-9E73-3AA7D269E744,2015-10-23T16:51:31,2019-06-30T02:31:01
2019-06,415088-ECARSN2803,E CARSON ST,On street,40.42575423179489,-79.96479123830795,Active,415 - SS & SSW,SOUTHSIDE|415 - SS & SSW,62E00A29-A35A-47FD-8E27-3AB341087F8A,2012-09-10T13:51:23,2019-06-30T02:31:01
2019-06,420007-GRANDV1304,GRANDVIEW AVE,On street,40.43864387773931,-80.02015407202634,Active,420 - Mt. Washington,MT.WASH|420 - Mt. Washington,E7134941-96D7-4D03-B206-3ACA318BEA28,2014-12-16T21:23:21,2019-06-30T02:31:01
2019-06,411587-CENTRE5303,CENTRE AVE,On street,40.45587300000002,-79.93904617286546,Active,411 - Shadyside,411 - Shadyside|SHADYSIDE2,1E40B9B4-9F40-46E7-8FEF-3AEA1183E8A1,2013-07-25T19:13:07,2019-06-30T02:31:01
2019-06,404474-PENAVE2201,PENN AVE,On street,40.452449701472496,-79.98208229626465,Active,404 - Strip Disctrict,404 - Strip Disctrict|STRIPDIST,4D5C96E0-B893-4F85-BD41-3AFA6C200E28,2012-11-19T20:35:44,2019-06-30T02:31:01
2019-06,419018-BROOKL0703,BROOKLINE BLVD,On street,40.39428385131057,-80.02051692477835,Active,419 - Brookline,BROOKLINE|419 - Brookline,F1347443-8A69-4741-8070-3B7188A56C4B,2013-12-13T12:14:56,2019-06-30T02:31:01
2019-06,403394-5THAVE1701,5TH AVE.,On street,40.43845113228218,-79.98162424561087,Active,403 - Uptown,UPTOWN2,B608021D-1CCA-476C-80A8-3B8C7F418A78,2017-02-21T13:04:51,2019-06-30T02:31:01
2019-06,412588-NHIGHL0102,N HIGHLAND AVE,On street,40.46217845596138,-79.92461954232789,Active,412 - East Liberty,EASTLIB|412 - East Liberty,50A97B5E-B627-4755-B4D9-3BD027B665D4,2013-08-14T11:22:28,2019-06-30T02:31:01
2019-06,401359-9THST-0101,9TH ST,On street,40.44461599182077,-79.99867290258407,Active,401 - Downtown 1,401 - Downtown 1|DOWNTOWN1,E9246B7F-59BC-4003-A575-3BECAFD4AA0A,2012-11-05T14:48:19,2019-06-30T02:31:01
2019-06,314001-PENNNW0001,PENN CIRCLE NW LOT,Lot,40.46359546943775,-79.92579970552253,Active,314 - Penn Circle NW Lot,PENNC.NW-L|314 - Penn Circle NW Lot,2EC65050-2DB5-4A2C-901D-3C2DD0AA8505,2013-08-19T11:44:22,2019-06-30T02:31:01
2019-06,403370-FORBES1402,FORBES AVE,On street,40.437632668300594,-79.98584579321635,Active,403 - Uptown,403 - Uptown|UPTOWN2,5C591B5E-0DA2-4E7D-B7BE-3D12C3841BD8,2013-07-29T01:09:09,2019-06-30T02:31:01
2019-06,413020-MURRAY1704,MURRAY AVE,On street,40.43728144353966,-79.92301652761267,Active,413 - Squirrel Hill,SQ.HILL1|413 - Squirrel Hill,51E4E85F-7AE7-4B88-A097-3D28A92082C5,2013-07-08T12:18:54,2019-06-30T02:31:01
2019-06,407109-FORBES3403,FORBES AVE,On street,40.43914317614138,-79.96042862534523,Inactive,407 - Oakland 1,407 - Oakland 1|Z - Inactive/Removed Terminals,E693F478-5E9B-46A8-A2C8-3D2F5A656E92,2012-08-13T12:23:59,2019-06-30T02:31:01
2019-06,409244-SDTHRG0302,S DITHRIDGE ST,On street,40.44530797221724,-79.95044678449631,Active,409 - Oakland 3,409 - Oakland 3|OAKLAND3,7A8D2130-6EAD-486D-BEF5-3DCFC2CE3F68,2012-09-04T16:14:56,2019-06-30T02:31:01
2019-06,406640-LIBRTY5202,LIBERTY AVE,On street,40.45702935735192,-79.94057451190201,Active,406 - Bloomfield (On-street),BLOOMFIELD|406 - Bloomfield (On-street),E259D03C-5453-4E74-9062-3DFD4D956FCC,2016-02-08T19:07:21,2019-06-30T02:31:01
2019-06,419021-BROOKL0901,BROOKLINE BLVD,On street,40.39287488656915,-80.01869559288025,Active,419 - Brookline,BROOKLINE|419 - Brookline,A01A3DBF-ADB7-45F1-A2A5-3E0120AC7BCE,2014-05-27T10:34:19,2019-06-30T02:31:01
2019-06,409291-NBLFLD0101,N BELLEFIELD,On street,40.44724098885219,-79.95212316513061,Active,409 - Oakland 3,409 - Oakland 3|OAKLAND3,217C70AB-A10D-45D3-BC6B-3EA394CD0BB7,2012-09-04T16:21:49,2019-06-30T02:31:01
2019-06,407125-DESOTO0201,DESOTO ST,On street,40.44270943670807,-79.95893865823746,Active,407 - Oakland 1,OAKLAND1|407 - Oakland 1,4DF3A2D2-8D6D-4083-8F3B-3F1C603B2839,2012-08-13T12:25:45,2019-06-30T02:31:01
2019-06,407137-DARAGH0304,DARRAGH ST,On street,40.44230933904888,-79.96360033750534,Active,407 - Oakland 1,OAKLAND1|407 - Oakland 1,CBB3E670-7567-42BF-8512-3F5B690C1E1B,2012-08-13T12:27:03,2019-06-30T02:31:01
2019-06,405014-BUTLER3402,BUTLER ST,On street,40.4630274041432,-79.96690931171997,Active,405 - Lawrenceville,405 - Lawrenceville|LAWRENCEV,B9434DEA-89C3-4F5C-ABC7-3FDBCF0DCE86,2015-04-01T11:58:05,2019-06-30T02:31:01
2019-06,406631-PENNAV4505,PENN AVE,On street,40.46601054338204,-79.94969934110452,Active,406 - Bloomfield (On-street),BLOOMFIELD|406 - Bloomfield (On-street),F1079BB0-3F57-426E-9683-4018DE143FC8,2013-07-28T13:59:27,2019-06-30T02:31:01
2019-06,410174-SCHEDR4702,SCHENLEY DR,On street,40.43858076345878,-79.94568049907684,Active,410 - Oakland 4,OAKLAND4|410 - Oakland 4,983D0DD3-DA50-4063-84E7-4042D61CB400,2012-08-24T15:45:18,2019-06-30T02:31:01
2019-06,409259-SCRAIG0402,S CRAIG ST,On street,40.444926261198134,-79.94881063699722,Active,409 - Oakland 3,S. Craig|409 - Oakland 3|OAKLAND3,C4E56E30-9A71-4BCE-864E-406570F027BD,2012-09-04T16:17:00,2019-06-30T02:31:01
2019-06,409255-SCRAIG0202,S CRAIG ST,On street,40.44597749219162,-79.94893670082092,Active,409 - Oakland 3,S. Craig|409 - Oakland 3|OAKLAND3,148ABCC7-71D5-4C98-A297-409B2EAB8B55,2012-09-04T16:16:23,2019-06-30T02:31:01
2019-06,409274-BIGELO4204,BIGELOW BLVD,On street,40.446528616434335,-79.95513796806335,Active,409 - Oakland 3,409 - Oakland 3|OAKLAND3,CF779EC2-E058-4485-8997-40E38A8887DD,2012-09-04T16:18:19,2019-06-30T02:31:01
2019-06,415043-ECARSN2104,E CARSON ST,On street,40.42842080017251,-79.97604042291641,Active,415 - SS & SSW,SOUTHSIDE|415 - SS & SSW,C2ED7E26-C07E-4B38-9787-40FE39D922BF,2012-09-12T19:59:42,2019-06-30T02:31:01
2019-06,412630-BAUMBV5802,BAUM BLVD,On street,40.45921807937338,-79.93066152601386,Active,412 - East Liberty,EASTLIB|412 - East Liberty,F86B7A7E-EBE4-4799-A7E4-4167C5F4BDDB,2017-02-02T16:07:15,2019-06-30T02:31:01
2019-06,416005-BVILLE2604,BROWNSVILLE RD,On street,40.38508352484961,-79.97834631799833,Active,416 - Carrick,416 - Carrick|CARRICK,C2373D92-08B5-452D-B244-4182882A78CA,2016-07-30T12:37:27,2019-06-30T02:31:01
2019-06,338556-42BUTL0001,42ND & BUTLER LOT,Lot,40.47053200000002,-79.96034624785045,Active,338 - 42nd & Butler Lot,42-BUTLE-L|338 - 42nd & Butler Lot,6BFC3BEE-B62E-4893-BB33-41C744E278A9,2012-11-29T13:12:13,2019-06-30T02:31:01
2019-06,412594-CENTRE6102,CENTRE AVE,On street,40.460433189984386,-79.92326000000003,Active,412 - East Liberty,EASTLIB|412 - East Liberty,15793829-4E3E-4B8C-84DC-41CF9DD86062,2013-08-14T11:23:12,2019-06-30T02:31:01
2019-06,411602-ELSWTH5701,ELLSWORTH AVE,On street,40.45577587456917,-79.93126250429918,Active,411 - Shadyside,411 - Shadyside|SHADYSIDE2,27A24117-59D0-4507-A31B-427CE775D64B,2013-07-18T00:34:14,2019-06-30T02:31:01
2019-06,404435-SMALLM1902,SMALLMAN ST,On street,40.45143655676435,-79.9849919766865,Active,404 - Strip Disctrict,404 - Strip Disctrict|STRIPDIST,5F6A1170-6BD5-42E5-A3C4-42C7569AEB88,2012-11-19T20:15:37,2019-06-30T02:31:01
2019-06,409308-BAYARD4302,BAYARD ST,On street,40.4480758225636,-79.95297074317932,Active,409 - Oakland 3,409 - Oakland 3|OAKLAND3,F2B828A5-133E-4DFA-B01B-42E4A62006EB,2012-09-04T16:09:19,2019-06-30T02:31:01
2019-06,421067-GALVSN0901,GALVENSTON AVE,On street,40.4521511795771,-80.01668438128638,Inactive,421 - NorthSide,421 - NorthSide|Z - Inactive/Removed Terminals,910DEDD1-C970-452D-B73F-43003A43462F,2013-08-06T11:32:05,2019-06-30T02:31:01
2019-06,401365-LIBRTY0602,LIBERTY AVE,On street,40.44201742956031,-80.00108689069748,Active,401 - Downtown 1,401 - Downtown 1|DOWNTOWN1,4EB7D0DA-D2D1-4D08-9D0D-430C2ACB51E0,2012-11-05T14:48:50,2019-06-30T02:31:01
2019-06,411582-CENTRE4903,CENTRE AVE,On street,,,Inactive,411 - Shadyside,411 - Shadyside|Z - Inactive/Removed Terminals,8AFB71E2-C831-40A0-A519-43C67AA3D778,2013-07-17T11:20:34,2019-06-30T02:31:01
2019-06,402520-1STAVE0301,1ST AVE,On street,40.43780887562832,-80.00201348304085,Active,402 - Downtown 2,402 - Downtown 2|DOWNTOWN2,F29DA9C0-7C60-45DF-B8F8-43ED2CB7174B,2013-01-16T13:32:41,2019-06-30T02:31:01
2019-06,415051-ECARSN2402,E CARSON ST,On street,40.428018575725616,-79.97078597545624,Inactive,415 - SS & SSW,SOUTHSIDE|415 - SS & SSW,E67B482D-C400-487C-BC4D-441FC39656D3,2012-09-12T19:51:08,2019-06-30T02:31:01
2019-06,413005-FORBES5804,FORBES AVE,On street,40.43797262693137,-79.92180089660815,Active,413 - Squirrel Hill,SQ.HILL1|413 - Squirrel Hill,956FA737-884C-4D24-A5C9-442C14647B10,2013-07-09T12:13:15,2019-06-30T02:31:01
2019-06,409283-RUSKIN0101,RUSKIN AVE,On street,40.44686541235802,-79.95322287082672,Active,409 - Oakland 3,409 - Oakland 3|OAKLAND3,1B341C19-36D0-417C-9200-44598C4E74EE,2012-09-04T16:20:19,2019-06-30T02:31:01
2019-06,408204-LYTTON0102,LYTTON AVE,On street,40.446021378176546,-79.95524257421493,Active,408 - Oakland 2,OAKLAND2|408 - Oakland 2,DC7AAC46-C902-468F-8D4C-44710452AF14,2012-08-29T19:59:03,2019-06-30T02:31:01
2019-06,409338-CENTRE4501,CENTRE AVE,On street,40.45164336685483,-79.95302846666164,Inactive,409 - Oakland 3,409 - Oakland 3|Z - Inactive/Removed Terminals,24D457B2-3192-48E2-8282-447611E57F54,2014-12-05T14:38:02,2019-06-30T02:31:01
2019-06,421084-CALAVE3601,CALIFORNIA AVE,On street,40.48095146550494,-80.04145728797539,Active,421 - NorthSide,NORTHSIDE|421 - NorthSide,2C0F6554-29B1-42F3-B4E3-44BC638259F1,2015-06-01T14:27:27,2019-06-30T02:31:01
2019-06,406604-LIBRTY4902,LIBERTY AVE,On street,40.459838347395724,-79.9458155276127,Active,406 - Bloomfield (On-street),BLOOMFIELD|406 - Bloomfield (On-street),FB9F4628-1DA3-4774-A426-44D5D1E46FA4,2012-12-05T13:06:21,2019-06-30T02:31:01
2019-06,411584-CENTRE5001,CENTRE AVE,On street,40.45444128369823,-79.94388584540365,Active,411 - Shadyside,411 - Shadyside|SHADYSIDE2,CD9556FF-4730-462F-A6CB-44D623D69E0B,2013-07-17T11:20:34,2019-06-30T02:31:01
2019-06,421087-ECOMON0702,EAST COMMONS,On street,40.45135749621612,-80.00306582447593,Active,421 - NorthSide,NORTHSIDE|421 - NorthSide,BA365D25-24F8-4C85-AA02-44DB67BEB6FA,2017-09-18T18:20:15,2019-06-30T02:31:01
2019-06,409345-BIGELO3901,BIGELOW BLVD,On street,40.45317645170377,-79.95394062989362,Inactive,409 - Oakland 3,Z - Inactive/Removed Terminals,D94E6258-7820-4D2B-92BE-44DF004E2162,2017-02-21T13:02:14,2019-06-30T02:31:01
2019-06,409341-CENTRE4601,CENTRE AVE,On street,40.45242479614662,-79.95048176519049,Active,409 - Oakland 3,409 - Oakland 3|OAKLAND3,AB36C423-2619-4957-8D50-45048EB204D6,2015-04-06T13:32:31,2019-06-30T02:31:01
2019-06,421035-NCOMON0008,NORTH COMMONS,On street,40.45375501705886,-80.0073707607479,Active,421 - NorthSide,NORTHSIDE|421 - NorthSide,80B987AC-873C-40E1-95DE-450CD46AB192,2013-08-08T21:03:23,2019-06-30T02:31:01
2019-06,417004-ALLEN-0002,ALLEN ST,On street,,,Inactive,417 - Allentown,417 - Allentown|Z - Inactive/Removed Terminals,193BD0C2-034B-4A44-9FFB-451C6B757202,2016-07-30T12:39:06,2019-06-30T02:31:01
2019-06,PBP408,Virtual Terminal for ParkMobile,Virtual Zone,,,Active,408 - Oakland 2,OAKLAND2,537DC792-67E0-44AB-9F0C-4564E3E37C1A,2015-10-23T17:15:03,2019-06-30T02:31:01
2019-06,403321-CENTRE3002,CENTRE AVE,On street,40.44880042532465,-79.96445327997207,Removed,403 - Uptown,403 - Uptown|Z - Inactive/Removed Terminals,D2763686-EE2B-49FF-B0A4-456735483065,2012-09-05T13:10:41,2019-06-30T02:31:01
2019-06,371565-EOHIOLOT1,EAST OHIO STREET LOT,Lot,40.454414976194236,-79.99985956564137,Inactive,371 - East Ohio Street Lot,371 - East Ohio Street Lot|Z - Inactive/Removed Terminals,25D979C6-C5D4-43B7-87D7-458788E9C95B,2012-11-29T13:15:51,2019-06-30T02:31:01
2019-06,406586-LIBRTY4504,LIBERTY AVE,On street,40.46273316565641,-79.95123482209016,Active,406 - Bloomfield (On-street),BLOOMFIELD|406 - Bloomfield (On-street),29102726-0E04-4A76-9911-45A30E78EC1D,2012-12-05T12:54:42,2019-06-30T02:31:01
2019-06,404473-PENAVE2102,PENN AVE,On street,40.45191903607559,-79.98264019573975,Active,404 - Strip Disctrict,404 - Strip Disctrict|STRIPDIST,074F5FEA-C6C9-4C96-ABB3-45AE4945EF9D,2012-11-19T20:35:19,2019-06-30T02:31:01
2019-06,345341-20SDNY0001,20TH & SIDNEY LOT,Lot,40.42924361730855,-79.97716158628464,Active,345 - 20th & Sidney Lot,345 - 20th & Sidney Lot|Southside Lots|20-SIDNE-L,269D3FC5-7CD4-4A30-AE20-4606B479F42A,2012-10-25T12:53:28,2019-06-30T02:31:01
2019-06,421039-RIDGE-0201,RIDGE AVE,On street,40.45218778390269,-80.00827395337296,Active,421 - NorthSide,NORTHSIDE|421 - NorthSide,C95AD9C1-A51A-4FB6-8C15-4609D946D84B,2013-08-07T11:20:33,2019-06-30T02:31:01
2019-06,411585-CENTRE5101,CENTRE AVE,On street,40.45493409470709,-79.94217708465578,Active,411 - Shadyside,411 - Shadyside|SHADYSIDE2,39382C12-6699-4509-A7E2-467DF8EBF5C1,2013-07-25T19:13:07,2019-06-30T02:31:01
2019-06,PBP421,Virtual Terminal for ParkMobile,Virtual Zone,,,Active,421 - NorthSide,NORTHSIDE,E6938E6D-BB86-4C41-8F6A-4694B1DBA0DC,2015-10-23T17:11:51,2019-06-30T02:31:01
2019-06,412592-NHIGHL0204,N HIGHLAND AVE,On street,40.46339210085295,-79.92404899999997,Active,412 - East Liberty,EASTLIB|412 - East Liberty,562D7B15-9400-49F8-BB2D-46BA311BF384,2013-08-14T11:22:58,2019-06-30T02:31:01
2019-06,426001-CENTRE1801,CENTRE AVE,On street,40.44273964804236,-79.98212850090567,Active,426 - Hill District,Hill District|426 - Hill District|HILL-DIST,AD531200-B7AC-4465-A800-471D33CC33C5,2017-07-17T11:23:44,2019-06-30T02:31:01
2019-06,408235-SBQUET0202,S BOUQUET ST,On street,40.44179900694607,-79.95623767375946,Active,408 - Oakland 2,OAKLAND2|408 - Oakland 2,D7112B76-0B98-46EE-9414-475C893FDD25,2012-08-29T16:50:48,2019-06-30T02:31:01
2019-06,402412-BLVDAL0304,BLVD OF ALLIES,On street,40.437889734537734,-80.00067114830017,Active,402 - Downtown 2,402 - Downtown 2|DOWNTOWN2,EAD57CFB-10FA-4AFA-A3D5-47957B669DEA,2012-11-05T15:48:05,2019-06-30T02:31:01
2019-06,403381-FULLER0101,FULLERTON ST,On street,40.442664527905826,-79.98939514160156,Active,403 - Uptown,UPTOWN1|403 - Uptown,7700525C-1D6C-45AF-A461-47F2CA63E409,2016-10-07T17:19:31,2019-06-30T02:31:01
2019-06,406620-BAUMBV4801,BAUM BLVD,On street,40.454531670492535,-79.94721800000002,Active,406 - Bloomfield (On-street),BLOOMFIELD|406 - Bloomfield (On-street),0ECC0E32-BA83-41B9-A1BB-47FB7FFC28BC,2013-07-25T19:17:12,2019-06-30T02:31:01
2019-06,409330-BAYARD4501,BAYARD ST,On street,40.449314786487065,-79.95151430368423,Inactive,409 - Oakland 3,409 - Oakland 3|Z - Inactive/Removed Terminals,040BA48C-2DD8-474F-8C65-484CAFDDB5AA,2012-09-04T16:08:44,2019-06-30T02:31:01
2019-06,412602-COMERC5802,COMMERCE ST,On street,40.4595250765584,-79.92824100000001,Active,412 - East Liberty,EASTLIB|412 - East Liberty,0F4B83D9-9786-40A3-BD6A-48725FCA414A,2013-08-14T11:24:07,2019-06-30T02:31:01
2019-06,406643-PENNAV4902,PENN AVE.,On street,40.46514559146202,-79.9448187053531,Active,406 - Bloomfield (On-street),BLOOMFIELD|406 - Bloomfield (On-street),5BD8DF0C-5CA6-4462-9BC9-48C8C6D166D2,2016-03-23T17:49:34,2019-06-30T02:31:01
2019-06,415045-ECARSN2202,E CARSON ST,On street,40.42831667123173,-79.97419238090515,Inactive,415 - SS & SSW,SOUTHSIDE|415 - SS & SSW,E64076FD-6DBC-4339-965D-48E7323D5F24,2012-09-12T18:29:45,2019-06-30T02:31:01
2019-06,413035-MURRAY2104,MURRAY AVE,On street,40.43308754903841,-79.92313297668647,Active,413 - Squirrel Hill,SQ.HILL1|413 - Squirrel Hill,F42494FF-DD72-4993-8E68-495D269C2488,2013-07-10T11:42:49,2019-06-30T02:31:01
2019-06,409250-NCRAIG0104,N CRAIG ST,On street,40.44853507874131,-79.95004445314407,Inactive,409 - Oakland 3,409 - Oakland 3|Z - Inactive/Removed Terminals,42AEFC13-60B6-40D5-819B-499B71618857,2012-09-04T16:15:43,2019-06-30T02:31:01
2019-06,406623-BAUMBV5102,BAUM BLVD,On street,40.45541599999999,-79.94349248304093,Active,406 - Bloomfield (On-street),BLOOMFIELD|406 - Bloomfield (On-street),9757619E-F1A8-498B-A67B-49B2777BCADA,2013-07-25T19:17:12,2019-06-30T02:31:01
2019-06,406641-PENNAV4802,PENN AVE.,On street,40.46535373509679,-79.9460256994098,Active,406 - Bloomfield (On-street),BLOOMFIELD|406 - Bloomfield (On-street),5A14DC53-609A-43CC-9035-4A04CFDA89CE,2016-03-23T17:34:06,2019-06-30T02:31:01
2019-06,402528-BLVDAL0101,BLVD OF ALLIES,On street,40.43939072780031,-80.00428341169868,Active,402 - Downtown 2,402 - Downtown 2|DOWNTOWN2,B1BFCBA9-03EC-4090-9622-4A69710DD85C,2018-10-03T11:53:22,2019-06-30T02:31:01
2019-06,414001-MELLON0001,MELLON PARK,On street,40.45223588643709,-79.92014865889553,Active,414 - Mellon Park,MELONPARK|414 - Mellon Park,C71B55AA-69CD-40F8-987A-4A6ED3ADCAFD,2013-07-17T11:20:34,2019-06-30T02:31:01
2019-06,323539-DPHILP0001,DOUGLAS PHILLIPS LOT,Lot,40.43243753118532,-79.92248777546308,Active,323 - Douglas Phillips Lot,323 - Douglas Phillips Lot|DOUG-PHI-L,41199093-EA1B-4208-A4A9-4A819C5CD6BD,2012-11-29T13:00:06,2019-06-30T02:31:01
2019-06,403341-STEVSN0001,STEVENSON ST,On street,40.43803133057075,-79.98643324785041,Active,403 - Uptown,403 - Uptown|UPTOWN2,36241F0B-6863-40B2-8373-4BC3DE023B9F,2013-07-29T01:09:08,2019-06-30T02:31:01
2019-06,401528-WILLPN0601,WILLIAM PENN PLACE,On street,40.44132309048649,-79.99645343061275,Inactive,401 - Downtown 1,Z - Inactive/Removed Terminals,3BF1210A-1784-4C80-90D2-4BDCD634FA85,2015-11-30T17:27:04,2019-06-30T02:31:01
2019-06,421001-CEDAR-0802,CEDAR AVE,On street,40.45425298857794,-80.00208993005941,Active,421 - NorthSide,NORTHSIDE|421 - NorthSide,8D88BE2B-655D-4E85-93D6-4C01AD0B9F4F,2013-08-08T11:33:09,2019-06-30T02:31:01
2019-06,404462-PENAVE1602,PENN AVE,On street,40.44895347537999,-79.98712555092618,Active,404 - Strip Disctrict,404 - Strip Disctrict|STRIPDIST,8EAE9381-D8EB-4C11-838E-4C0B62603786,2012-11-19T20:29:42,2019-06-30T02:31:01
2019-06,301520-SHARVD0001,SHERIDAN HARVARD LOT,Lot,40.4624815400468,-79.92282364533423,Active,301 - Sheridan Harvard Lot,SHER-HAR-L|301 - Sheridan Harvard Lot,EC8A4375-687B-468D-BBFD-4C12851F1FD9,2012-11-29T12:32:06,2019-06-30T02:31:01
2019-06,409238-NDTHRG0101,N DITHRIDGE ST,On street,40.44769004494908,-79.95099663734436,Active,409 - Oakland 3,409 - Oakland 3|OAKLAND3,22F26010-788B-4D13-8E6B-4C18BCFF0C36,2012-09-04T16:07:53,2019-06-30T02:31:01
2019-06,415096-S26TH-0001,S 26TH,On street,40.42761430710638,-79.96819227933883,Active,415 - SS & SSW,SOUTHSIDE|415 - SS & SSW,52E57F3C-D7CA-4B96-A32A-4C512C888529,2012-09-10T13:53:35,2019-06-30T02:31:01
2019-06,405016-BUTLER3401,BUTLER ST,On street,40.46316208963952,-79.96697368473633,Active,405 - Lawrenceville,405 - Lawrenceville|LAWRENCEV,AB893B00-A109-4882-8DFB-4D009DBDC846,2015-04-01T12:02:25,2019-06-30T02:31:01
2019-06,PBP410,Virtual Terminal for ParkMobile,Virtual Zone,,,Active,410 - Oakland 4,OAKLAND4,0C93920B-50DE-4774-A6B8-4D374760B8F1,2015-10-23T17:16:48,2019-06-30T02:31:01
2019-06,404459-PENAVE1401,PENN AVE,On street,40.44768611718287,-79.9893053325062,Active,404 - Strip Disctrict,404 - Strip Disctrict|STRIPDIST,A9368EA0-1671-47F3-86A0-4D5A7D8CAC69,2012-11-19T20:28:30,2019-06-30T02:31:01
2019-06,421063-WESTRN0904,WESTERN AVE,On street,,,Removed,421 - NorthSide,421 - NorthSide|Z - Inactive/Removed Terminals,D833A5EC-E8FA-4E26-868D-4D74893997B6,2013-08-06T11:31:33,2019-06-30T02:31:01
2019-06,406612-FRDSHP4902,FRIENDSHIP AVE,On street,40.46228173536008,-79.9450626588955,Active,406 - Bloomfield (On-street),BLOOMFIELD|406 - Bloomfield (On-street),12C072CB-F879-4C60-86BE-4DBF545764AA,2012-12-05T13:09:54,2019-06-30T02:31:01
2019-06,412596-CENTRE5903,CENTRE AVE,On street,40.459079368980674,-79.92830648098561,Active,412 - East Liberty,EASTLIB|412 - East Liberty,69BBFE71-ACB5-493D-A33D-4E0209ACE348,2013-08-14T11:23:26,2019-06-30T02:31:01
2019-06,409273-BIGELO4106,BIGELOW BLVD,On street,40.45045575612486,-79.95501726865768,Active,409 - Oakland 3,409 - Oakland 3|OAKLAND3,DCD48D8C-84BA-47FA-A9BB-4E07FFAEDF25,2012-09-04T16:18:10,2019-06-30T02:31:01
2019-06,406588-LIBRTY4602,LIBERTY AVE,On street,40.46245647079178,-79.95070155092622,Active,406 - Bloomfield (On-street),BLOOMFIELD|406 - Bloomfield (On-street),46B7E43C-D939-4676-AFCB-4E3612C49C53,2012-12-05T12:58:09,2019-06-30T02:31:01
2019-06,411581-CENTRE4901,CENTRE AVE,On street,40.45340723012187,-79.94722938650818,Active,411 - Shadyside,411 - Shadyside|SHADYSIDE2,9B131B11-D9CA-44E3-BB6C-4E4D6BC904C5,2013-07-17T11:20:34,2019-06-30T02:31:01
2019-06,415058-BEDSQR0002,BEDFORD SQ,On street,40.42940899621271,-79.98623549938202,Active,415 - SS & SSW,SOUTHSIDE|415 - SS & SSW,F54A4500-6BD8-4B53-9A6A-4EA97C8901EB,2012-09-12T20:02:06,2019-06-30T02:31:01
2019-06,325543-JCCLOT0001,JCC/FORBES LOT,Lot,40.43774551824542,-79.92361679629516,Active,325 - JCC/Forbes Lot,JCC-L|325 - JCC/Forbes Lot,EB46BDE1-EB0D-493D-95F1-4ED2483866E8,2012-11-29T13:03:37,2019-06-30T02:31:01
2019-06,403387-5THAVE2501,5TH AVE.,On street,40.43654276914898,-79.96750187867292,Inactive,403 - Uptown,403 - Uptown|Z - Inactive/Removed Terminals,7C3F7C90-B887-46F9-8382-4F2EB0B6DB43,2016-11-02T19:36:08,2019-06-30T02:31:01
2019-06,422028-NSHORE0304,NORTHSHORE AVE,On street,40.44584986420946,-80.01135345098305,Active,422 - Northshore,422 - Northshore|NORTHSHORE,45182DAA-91AD-4888-929A-4F4ACBCF1FB6,2016-04-04T12:11:05,2019-06-30T02:31:01
2019-06,402417-STANWX0004,STANWIX ST,On street,40.43941060121113,-80.00530332326889,Active,402 - Downtown 2,402 - Downtown 2|DOWNTOWN2,81E1F4BD-19AE-4070-8704-4F78466C8B87,2012-11-05T16:01:39,2019-06-30T02:31:01
2019-06,PBP341,Virtual Terminal for ParkMobile,Virtual Lot,,,Active,341 - 18th & Sidney Lot,18-SIDNE-L,6CA3005D-274D-4996-A39F-4FAEE924524D,2015-10-23T16:34:52,2019-06-30T02:31:01
2019-06,409290-TNYSON0105,TENNYSON AVE,On street,40.446528616434335,-79.95447143912315,Active,409 - Oakland 3,409 - Oakland 3|OAKLAND3,FF843631-C54F-4A68-9A2E-4FCD65150A76,2012-09-04T16:21:37,2019-06-30T02:31:01
2019-06,420002-VGINIA0102,VIRGINIA AVE,On street,40.42987742587828,-80.00824506391837,Active,420 - Mt. Washington,MT.WASH|420 - Mt. Washington,1593A505-D945-433D-82AC-5002F892A769,2014-12-05T14:10:59,2019-06-30T02:31:01
2019-06,417003-WARRING0801,WARRINGTON AVE,On street,40.421861012059786,-79.99317804414557,Active,417 - Allentown,ALLENTOWN|417 - Allentown,4048257E-8354-44B0-B2CA-5019D5B079B9,2016-07-30T12:38:54,2019-06-30T02:31:01
2019-06,413023-MURRAY1804,MURRAY AVE,On street,40.43624011287605,-79.92296606994057,Active,413 - Squirrel Hill,SQ.HILL1|413 - Squirrel Hill,7A2A7F1D-BC2E-4E83-AF4B-501EB0CE3AE5,2013-07-08T12:18:54,2019-06-30T02:31:01
2019-06,409248-NCRAIG0101,N CRAIG ST,On street,40.44916374433178,-79.95024025440216,Active,409 - Oakland 3,409 - Oakland 3|OAKLAND3,CBE5107B-0D86-404E-B285-505252CF1859,2012-09-04T16:15:27,2019-06-30T02:31:01
2019-06,335554-FCEDAR0002,FRIENDSHIP CEDARVILLE LOT,Lot,40.4625037719921,-79.94798197668649,Active,335 - Friendship Cedarville Lot,335 - Friendship Cedarville Lot|FRIE-CED-L,ACC9B27E-103D-4C68-9242-508625160DC0,2012-11-29T13:10:31,2019-06-30T02:31:01
2019-06,411592-CENTRE5202,CENTRE AVE,On street,40.45532685545346,-79.9402162232094,Active,411 - Shadyside,411 - Shadyside|SHADYSIDE2,B81DB081-5700-472D-8276-50B6A5B23FC7,2013-07-25T19:13:07,2019-06-30T02:31:01
2019-06,302522-KIRKWD0002,SHERIDAN KIRKWOOD LOT,Lot,40.46178432797751,-79.92268570552255,Active,302 - Sheridan Kirkwood Lot,302 - Sheridan Kirkwood Lot|SHER-KIR-L,F0B68AA9-E101-476B-870D-50DEB22576F8,2012-11-29T12:33:57,2019-06-30T02:31:01
2019-06,415072-S22ND-0001,S 22ND,On street,40.428686226154994,-79.97450888156891,Active,415 - SS & SSW,SOUTHSIDE|415 - SS & SSW,252AB8B6-0B1A-424F-B445-511E35C5FEB7,2012-09-12T20:05:24,2019-06-30T02:31:01
2019-06,411578-CENTRE4703,CENTRE AVE,On street,40.45300055679791,-79.94855670552255,Active,411 - Shadyside,411 - Shadyside|SHADYSIDE2,AA1CC8F9-3A62-4EF3-AEA2-5187B9B45C39,2013-07-17T11:20:34,2019-06-30T02:31:01
2019-06,409246-SDTHRG0402,S DITHRIDGE ST,On street,40.44491401374986,-79.95039850473404,Active,409 - Oakland 3,409 - Oakland 3|OAKLAND3,7E74E629-B6FF-4035-A022-51BE7616858A,2012-09-04T16:15:12,2019-06-30T02:31:01
2019-06,421040-RIDGE-0601,RIDGE AVE,On street,40.45101042165738,-80.01202138773158,Active,421 - NorthSide,NORTHSIDE|421 - NorthSide,EFD7648E-AE28-47C1-A8A9-527D7CB6E3CE,2013-08-07T11:20:41,2019-06-30T02:31:01
2019-06,421027-ALLGHY0006,ALLEGHENY SQ,On street,40.45243611357162,-80.00447801471517,Active,421 - NorthSide,NORTHSIDE|421 - NorthSide,C8E6AFA2-2DA3-480C-90A0-52A7EF448848,2013-08-08T11:35:09,2019-06-30T02:31:01
2019-06,404465-PENAVE1702,PENN AVE,On street,40.4498698118996,-79.98566304529953,Active,404 - Strip Disctrict,404 - Strip Disctrict|STRIPDIST,E1DA5365-857A-4466-BE2A-52C13D288E10,2012-11-19T20:31:53,2019-06-30T02:31:01
2019-06,PBP416,Virtual Terminal for ParkMobile,Virtual Zone,,,Active,416 - Carrick,CARRICK,22B1A62C-A47B-4051-801F-52F436518647,2015-10-23T18:06:38,2019-06-30T02:31:01
2019-06,408196-THCKRY0101,THACKERAY AVE,On street,40.44345042761411,-79.95679825544357,Active,408 - Oakland 2,OAKLAND2|408 - Oakland 2,5A4D60A8-82FA-4315-A2EE-5313D9033CC6,2012-08-29T17:06:03,2019-06-30T02:31:01
2019-06,420012-GRANDV0102,GRANDVIEW AVE,On street,40.43189432674445,-80.00714251398222,Inactive,420 - Mt. Washington,420 - Mt. Washington|Z - Inactive/Removed Terminals,ADBCE22B-F644-418E-B20A-5353CAB5C14D,2016-07-23T11:41:59,2019-06-30T02:31:01
2019-06,406611-FRDSHP4901,FRIENDSHIP AVE,On street,40.46269855514028,-79.94505406994057,Active,406 - Bloomfield (On-street),BLOOMFIELD|406 - Bloomfield (On-street),94AC79CF-9083-4020-A5BD-537AEFC0660C,2012-12-05T13:09:28,2019-06-30T02:31:01
2019-06,422027-GENROB0104,W GENERAL ROBINSON ST,On street,40.44745993808532,-80.00842112309329,Active,422 - Northshore,422 - Northshore|NORTHSHORE,0E06EF7C-5364-4C1E-B17D-5390E7B39FA7,2016-03-23T13:55:15,2019-06-30T02:31:01
2019-06,415084-ECARSN2604,E CARSON ST,On street,40.42713653196894,-79.96735274791717,Active,415 - SS & SSW,SOUTHSIDE|415 - SS & SSW,20DD2CFD-A390-4069-AA34-53AC35F07584,2012-09-10T13:50:05,2019-06-30T02:31:01
2019-06,416009-BVILLE2802,BROWNSVILLE RD,On street,40.383078438436094,-79.9770537614495,Active,416 - Carrick,416 - Carrick|CARRICK,367B2CD3-0818-444A-B75C-544B586C44D7,2016-07-30T12:38:13,2019-06-30T02:31:01
2019-06,410154-MARMOR5104,MARGARET MORRISON ST,On street,40.4421786943995,-79.9385404586792,Active,410 - Oakland 4,OAKLAND4|410 - Oakland 4,C697A02E-6B7D-4172-86E2-54638E34A35D,2012-08-28T14:25:16,2019-06-30T02:31:01
2019-06,404528-PENAVE2401,PENN AVE,On street,40.453690625734914,-79.98030667389679,Active,404 - Strip Disctrict,404 - Strip Disctrict|STRIPDIST,1B8AFCB0-E47F-4412-95D0-546E73B34B59,2015-11-05T14:17:02,2019-06-30T02:31:01
2019-06,403316-RBSTEX0403,ROBINSON ST EXT,On street,40.44516100352536,-79.9650514125824,Active,403 - Uptown,HILL DISTRICT 2|403 - HILL DISTRICT 2|403 - Uptown|HILL-DIST-2,25AB6A11-73AE-42CE-9547-54FDBA08E24C,2012-09-05T13:09:37,2019-06-30T02:31:01
2019-06,409332-NDTHRG0302,N DITHRIDGE ST,On street,40.45215764951464,-79.95385995145625,Inactive,409 - Oakland 3,409 - Oakland 3|Z - Inactive/Removed Terminals,655890E0-7D3D-4735-A889-5549A3583B82,2014-12-02T16:25:49,2019-06-30T02:31:01
2019-06,404520-PENAVE2003,PENN AVE,On street,40.45153123948155,-79.98341803635407,Active,404 - Strip Disctrict,404 - Strip Disctrict|STRIPDIST,0E13CB02-E9FE-49F8-AB59-555281A5CB56,2015-03-20T19:19:01,2019-06-30T02:31:01
2019-06,321534-BEBART0002,BEACON BARTLETT LOT,Lot,40.4354452699404,-79.92366629447747,Active,321 - Beacon Bartlett Lot,BEAC-BAR-L|321 - Beacon Bartlett Lot,9C309F70-34BD-420E-8F03-55604348EE10,2012-11-29T12:53:15,2019-06-30T02:31:01
2019-06,406642-PENNAV4801,PENN AVE.,On street,40.46543944111185,-79.94579502943452,Active,406 - Bloomfield (On-street),BLOOMFIELD|406 - Bloomfield (On-street),A6EC4352-98A6-4625-A6DA-55A139085F1F,2016-03-23T17:48:20,2019-06-30T02:31:01
2019-06,410141-FREWST4903,FREW ST,On street,40.440774248383136,-79.94333758950233,Active,410 - Oakland 4,OAKLAND4|410 - Oakland 4,FE55DD46-F135-494A-917F-55D6DB7C7BA6,2012-08-28T14:23:31,2019-06-30T02:31:01
2019-06,410170-WSTCIR0001,WEST CIRCUIT DR,On street,40.43906151941952,-79.94355887174606,Active,410 - Oakland 4,West Circuit|410 - West Circuit|W CIRC DR,629B4F1F-7855-4D99-801A-563B524FA2E6,2012-08-27T11:29:30,2019-06-30T02:31:01
2019-06,403384-FULLER0201,FULLERTON ST,On street,40.4411710890605,-79.98829436295637,Active,403 - Uptown,UPTOWN1|403 - Uptown,0BF52746-7369-4021-B168-568C6F9E9607,2016-10-11T14:39:18,2019-06-30T02:31:01
2019-06,410143-FREWST4801,FREW ST,On street,40.44127948488586,-79.94789198040962,Active,410 - Oakland 4,OAKLAND4|410 - Oakland 4,0E62EBB4-0CFA-4BFF-8128-569A4BEE0683,2012-08-27T11:20:26,2019-06-30T02:31:01
2019-06,369001-MAINLT0001,MAIN/ALEXANDER LOT,Lot,40.440717969032434,-80.03386820671949,Active,369 - Main/Alexander Lot,MAIN-ALE-L|369 - Main/Alexander Lot,89E50B9E-F506-4D0F-AD7A-56A4C58B2D23,2014-12-03T12:51:14,2019-06-30T02:31:01
2019-06,403326-CENTRE3106,CENTRE AVE,On street,40.44823911400857,-79.95940536260605,Active,403 - Uptown,HILL DISTRICT 2|403 - HILL DISTRICT 2|403 - Uptown|HILL-DIST-2,D5B6410B-E1D9-48E3-9663-56BBF58912F2,2012-09-05T13:11:54,2019-06-30T02:31:01
2019-06,314002-PENNNW0002,PENN CIRCLE NW LOT,Lot,40.463251692740975,-79.9264151305124,Active,314 - Penn Circle NW Lot,PENNC.NW-L|314 - Penn Circle NW Lot,416E4CC4-1754-4593-8A48-56BD927A2E87,2015-04-01T11:49:11,2019-06-30T02:31:01
2019-06,422013-ROONEY0104,ART ROONEY DR,On street,40.446348855807436,-80.01406393216365,Active,422 - Northshore,422 - Northshore|NORTHSHORE,72B7B849-256C-48D8-BD68-56D297ECEB9C,2013-07-16T11:13:43,2019-06-30T02:31:01
2019-06,404461-PENAVE1601,PENN AVE,On street,40.44924090109905,-79.98691375826644,Active,404 - Strip Disctrict,404 - Strip Disctrict|STRIPDIST,549178FC-470B-46FB-8D03-577148246BAD,2012-11-19T20:29:19,2019-06-30T02:31:01
2019-06,415049-ECARSN2304,E CARSON ST,On street,40.42814924789094,-79.97161746025085,Inactive,415 - SS & SSW,SOUTHSIDE|415 - SS & SSW,C94E9CC3-1A37-4E01-8DFA-5799328612C8,2012-09-12T19:29:14,2019-06-30T02:31:01
2019-06,421065-WESTRN0902,WESTERN AVE,On street,40.45181668127205,-80.0169353411045,Active,421 - NorthSide,NORTHSIDE|421 - NorthSide,3B1A9415-2EC8-4B54-BA6E-57C2ED61F5FF,2013-08-06T11:31:48,2019-06-30T02:31:01
2019-06,401377-FORBES0202,FORBES AVE,On street,40.44009651103056,-80.00101447105408,Inactive,401 - Downtown 1,Z - Inactive/Removed Terminals,98C60946-D13A-4D53-B324-57CBFB33A587,2012-11-05T14:49:54,2019-06-30T02:31:01
2019-06,411596-CENTRE5404,CENTRE AVE,On street,40.45615420000001,-79.93748665337296,Active,411 - Shadyside,411 - Shadyside|SHADYSIDE2,5A06303E-5E34-439A-AE00-58855A2FC941,2013-07-25T19:15:02,2019-06-30T02:31:01
2019-06,408236-5THAVE4001,FIFTH AVE,On street,40.443504975179636,-79.9561760949291,Active,408 - Oakland 2,OAKLAND2|408 - Oakland 2,5CA641EF-4241-4AB5-9A04-58950CD65F23,2013-09-05T12:25:09,2019-06-30T02:31:01
2019-06,402387-2NDAVE0704,2ND AVE,On street,40.43509900781779,-79.99344527721405,Active,402 - Downtown 2,402 - Downtown 2|DOWNTOWN2,78384401-272D-482D-9FAB-58CD45334963,2012-11-05T14:54:57,2019-06-30T02:31:01
2019-06,411607-ELSWTH5903,ELLSWORTH AVE,On street,40.45770599829361,-79.9286285411045,Active,411 - Shadyside,411 - Shadyside|SHADYSIDE2,3510E274-8616-4115-A5AE-58D225C00336,2013-07-18T00:34:14,2019-06-30T02:31:01
2019-06,408203-LYTTON0101,LYTTON AVE,On street,40.44555087810078,-79.95441913604736,Inactive,408 - Oakland 2,408 - Oakland 2|Z - Inactive/Removed Terminals,0CE6283F-F406-4E8A-900C-58E0F03DEA21,2012-08-29T19:58:54,2019-06-30T02:31:01
2019-06,425002-LIVING6401,LIVING PL,On street,40.45678649295546,-79.91748069220193,Active,425 - Bakery Sq,425 - Bakery Sq|BAKERY-SQ,8572C3F6-7B83-400B-84B3-5921916BF0A1,2016-04-08T20:00:55,2019-06-30T02:31:01
2019-06,404527-PENAVE2402,PENN AVE,On street,40.45358041299414,-79.98018865670014,Active,404 - Strip Disctrict,404 - Strip Disctrict|STRIPDIST,1CE0163D-6F03-430D-AA13-5934329151A3,2015-11-05T14:16:47,2019-06-30T02:31:01
2019-06,403332-CRAWFD0701,CRAWFORD ST,On street,40.43987911303232,-79.98505041104511,Active,403 - Uptown,UPTOWN1|403 - Uptown,9B830872-0834-4F2F-A640-595F627A6319,2013-08-05T19:57:16,2019-06-30T02:31:01
2019-06,406627-PENNAV4201,PENN AVE,On street,40.465970059416954,-79.95397934970282,Active,406 - Bloomfield (On-street),BLOOMFIELD|406 - Bloomfield (On-street),4BCE9338-45B5-4E59-85F6-59AA6F039790,2013-07-28T13:58:44,2019-06-30T02:31:01
2019-06,415100-S27TH-0002,S 27TH,On street,40.427491800984384,-79.96677339076996,Active,415 - SS & SSW,SOUTHSIDE|415 - SS & SSW,E44C5541-A291-4258-9C40-59EA587EFE19,2012-09-10T13:54:40,2019-06-30T02:31:01
2019-06,412632-BAUMBV5801,BAUM BLVD,On street,40.459467057378944,-79.93033966093208,Active,412 - East Liberty,EASTLIB|412 - East Liberty,10C7AED5-3EF8-46C4-A500-59F355025CBC,2017-02-02T16:07:46,2019-06-30T02:31:01
2019-06,422012-MAZWAY0102,MAZEROSKI WAY,On street,40.44722568006872,-80.00761806964874,Active,422 - Northshore,422 - Northshore|NORTHSHORE,13715876-BB94-438E-8C7B-5A4A442E3CD6,2012-07-23T12:44:11,2019-06-30T02:31:01
2019-06,421013-UNION-0802,UNION AVE,On street,40.454336102214576,-80.00286095337299,Active,421 - NorthSide,NORTHSIDE|421 - NorthSide,F0AF6885-02F3-45DB-98D7-5AAE0BD2F52E,2013-08-08T11:34:43,2019-06-30T02:31:01
2019-06,410190-FORBES4002,FORBES AVE,On street,40.4432218031921,-79.9531826376915,Active,410 - Oakland 4,OAKLAND4|410 - Oakland 4,CDECDCDC-1455-4945-89A7-5AEA1C70E3AD,2012-08-28T14:27:42,2019-06-30T02:31:01
2019-06,418005-BEECHV1504,BEECHVIEW AVE,On street,40.41122254910422,-80.02485094129042,Active,418 - Beechview,BEECHVIEW|418 - Beechview,3BFC8C7E-E091-4DB2-B70A-5AF8BE35911D,2016-04-14T12:41:55,2019-06-30T02:31:01
2019-06,415031-ECARSN1803,E CARSON ST,On street,40.42880873010131,-79.97980892658233,Active,415 - SS & SSW,SOUTHSIDE|415 - SS & SSW,3D72011E-7F62-4C84-99E9-5B1E4A06B3F8,2012-09-12T19:57:30,2019-06-30T02:31:01
2019-06,412603-SWHITD0101,S WHITFIELD ST,On street,40.460890215163516,-79.92635336441805,Active,412 - East Liberty,EASTLIB|412 - East Liberty,0AB2ADC6-0F8D-4C81-8767-5B52ADC6D1EF,2013-08-09T11:26:48,2019-06-30T02:31:01
2019-06,403362-BEDFRD1201,BEDFORD AVE,On street,40.443233124766834,-79.99032791534421,Active,403 - Uptown,UPTOWN1|403 - Uptown,663D059E-4113-44A4-A601-5B78FA320686,2013-07-31T01:15:21,2019-06-30T02:31:01
2019-06,328546-IVYBEL0002,IVY BELLEFONTE LOT,Lot,40.451694425507156,-79.93359083680536,Active,328 - Ivy Bellefonte Lot,328 - Ivy Bellefonte Lot|IVY-BELL-L,2C16767A-671A-49E6-BC1B-5B7F01244207,2012-11-29T13:06:40,2019-06-30T02:31:01
2019-06,422030-NSHORE0402,NORTHSHORE AVE,On street,40.44571213446301,-80.01211613416672,Active,422 - Northshore,422 - Northshore|NORTHSHORE,32F3A139-2D5F-49E3-9717-5BC449F599D0,2018-04-18T11:24:51,2019-06-30T02:31:01
2019-06,422007-GENROB0202,W GENERAL ROBINSON ST,On street,40.448041123080436,-80.00505924224854,Active,422 - Northshore,422 - Northshore|NORTHSHORE,47C66D1D-566E-447F-B636-5C2F884EAD76,2012-07-23T12:43:44,2019-06-30T02:31:01
2019-06,PBP414,Virtual Terminal for ParkMobile,Virtual Zone,,,Active,414 - Mellon Park,MELONPARK,8918367A-8FE6-4EC5-9F9A-5C46F2D34552,2015-10-23T17:07:56,2019-06-30T02:31:01
2019-06,324572-FMURRY0003,FORBES MURRAY LOT,Lot,40.438876201348535,-79.92266641104504,Active,324 - Forbes Murray Lot,FORB-MUR-L|324 - Forbes Murray Lot,CC784E9A-5C15-4FEB-BF56-5C562319A84A,2012-11-30T12:05:39,2019-06-30T02:31:01
2019-06,403327-CRAWFD0104,CRAWFORD ST,On street,40.44277532106237,-79.98736963558195,Inactive,403 - Uptown,403 - Uptown|Z - Inactive/Removed Terminals,5D7499ED-9374-4641-9BC0-5C6078761EF3,2013-08-05T19:56:16,2019-06-30T02:31:01
2019-06,421052-WOHIO-0702,WEST OHIO ST,On street,40.45198487546479,-80.01193331779097,Active,421 - NorthSide,NORTHSIDE|421 - NorthSide,C1F27F24-FDA9-4A7C-B80D-5C6C4498B4AE,2013-08-07T11:21:53,2019-06-30T02:31:01
2019-06,406632-PENNAV4503,PENN AVE,On street,40.46613128761506,-79.95035965889548,Inactive,406 - Bloomfield (On-street),406 - Bloomfield (On-street)|Z - Inactive/Removed Terminals,2DD29EFB-5B2C-45F1-AA45-5C735776767B,2013-07-28T13:59:36,2019-06-30T02:31:01
2019-06,415085-ECARSN2701,E CARSON ST,On street,40.426942562461605,-79.96658831834793,Active,415 - SS & SSW,SOUTHSIDE|415 - SS & SSW,AA4D8C34-483A-4103-BA94-5CE034BCF1C1,2012-09-10T13:50:43,2019-06-30T02:31:01
2019-06,406591-LIBRTY4702,LIBERTY AVE,On street,40.46183528727651,-79.94957125644873,Active,406 - Bloomfield (On-street),BLOOMFIELD|406 - Bloomfield (On-street),4BA2DF59-1F75-4EFA-B012-5CEEE91FFDAB,2012-12-05T12:59:32,2019-06-30T02:31:01
2019-06,402521-ROSSST0301,ROSS ST,On street,40.4372910186636,-79.99650578951332,Active,402 - Downtown 2,402 - Downtown 2|DOWNTOWN2,17F1AA72-2B21-4CFD-8F61-5CF881C06CA1,2014-03-20T18:40:46,2019-06-30T02:31:01
2019-06,PBP344,Virtual Terminal for ParkMobile,Virtual Lot,,,Active,344 - 18th & Carson Lot,18-CARSO-L,A9EFDF4E-8383-4874-9547-5D19E5A36026,2015-10-23T16:33:57,2019-06-30T02:31:01
2019-06,415074-S24TH-0002,S 24TH,On street,40.42849226111699,-79.97114807367325,Active,415 - SS & SSW,SOUTHSIDE|415 - SS & SSW,2837E94C-E487-4510-A62B-5DABB85E6259,2012-09-12T20:03:13,2019-06-30T02:31:01
2019-06,403360-5THAVE1303,5TH AVE,On street,40.43872867789944,-79.98737468220901,Active,403 - Uptown,403 - Uptown|UPTOWN2,B202FCED-2F18-492C-B878-5E0B43826879,2013-07-30T12:07:32,2019-06-30T02:31:01
2019-06,408194-5THAVE4203,FIFTH AVE,On street,40.44534675556847,-79.95364129543304,Active,408 - Oakland 2,OAKLAND2|408 - Oakland 2,08E6CD30-3CD6-4E76-8443-5E4E1BD38C86,2012-08-29T19:58:03,2019-06-30T02:31:01
2019-06,411479-WALNUT5504,WALNUT ST,On street,40.4514642817635,-79.93264388343237,Active,411 - Shadyside,SHADYSIDE1|411 - Shadyside,7505AE02-3BDB-48D2-B021-5E58838B1D12,2012-12-05T12:24:43,2019-06-30T02:31:01
2019-06,420011-SOUTHN0004,SOUTHERN AVE,On street,40.42883206830899,-80.00757987608267,Active,420 - Mt. Washington,MT.WASH|420 - Mt. Washington,C70A4151-FAB3-4F33-96AC-5E5A371BACAE,2015-09-21T14:50:30,2019-06-30T02:31:01
2019-06,415032-ECARSN1901,E CARSON ST,On street,40.428692351357626,-79.97885406017303,Active,415 - SS & SSW,SOUTHSIDE|415 - SS & SSW,7FA0E72D-DE02-492B-82E8-5E7460A06337,2012-09-12T19:57:40,2019-06-30T02:31:01
2019-06,337555-52BUTL0001,52ND & BUTLER LOT,Lot,40.48106749821452,-79.95390163558198,Active,337 - 52nd & Butler Lot,337 - 52nd & Butler Lot|5224BUTL-L,5CC8709F-866B-4FE4-8FEA-5F1C8DDF936B,2012-11-29T13:11:22,2019-06-30T02:31:01
2019-06,405019-BUTLER3501,BUTLER ST,,40.46437424695373,-79.96613147110565,Active,405 - Lawrenceville,405 - Lawrenceville|LAWRENCEV,5038DFED-EF80-411A-A448-5F45CFDFF7FE,2015-04-01T12:02:25,2019-06-30T02:31:01
